[
  {
    "id": 0,
    "trailName": "Turnpike Road",
    "state": "Georgia",
    "latitude": 33.054042,
    "longitude": -86.244886,
    "distanceMiles": 2.11,
    "elevationGainFeet": 101.3,
    "difficultyLevel": "Easy",
    "terrainTypes": [
      "Mixed"
    ],
    "description": "",
    "userRating": 3.7,
    "completed": false,
    "elevationAtCenter": 746,
    "elevationEstimated": true
  },
  {
    "id": 1,
    "trailName": "County Road 41",
    "state": "Georgia",
    "latitude": 33.090654,
    "longitude": -86.219762,
    "distanceMiles": 3.76,
    "elevationGainFeet": 108.1,
    "difficultyLevel": "Easy",
    "terrainTypes": [
      "Paved"
    ],
    "description": "Surface: paved",
    "userRating": 3.4,
    "completed": false,
    "elevationAtCenter": 845,
    "elevationEstimated": true
  },
  {
    "id": 2,
    "trailName": "County Road 56",
    "state": "Georgia",
    "latitude": 32.136848,
    "longitude": -84.180764,
    "distanceMiles": 5.41,
    "elevationGainFeet": 140.7,
    "difficultyLevel": "Easy",
    "terrainTypes": [
      "Paved",
      "Mixed"
    ],
    "description": "Surface: asphalt",
    "userRating": 4.4,
    "completed": false,
    "elevationAtCenter": 694,
    "elevationEstimated": true
  },
  {
    "id": 3,
    "trailName": "County Road 39",
    "state": "Georgia",
    "latitude": 32.647329,
    "longitude": -85.832238,
    "distanceMiles": 0.92,
    "elevationGainFeet": 47.8,
    "difficultyLevel": "Easy",
    "terrainTypes": [
      "Mixed"
    ],
    "description": "Trail merged from 4 segments",
    "userRating": 3.8,
    "completed": false,
    "elevationAtCenter": 694,
    "elevationEstimated": true
  },
  {
    "id": 4,
    "trailName": "Unnamed Trail",
    "state": "Georgia",
    "latitude": 32.609846,
    "longitude": -83.392598,
    "distanceMiles": 29170.88,
    "elevationGainFeet": 1531471.2,
    "difficultyLevel": "Easy",
    "terrainTypes": [
      "Mixed",
      "Paved",
      "Gravel",
      "Grass",
      "Dirt",
      "Sand",
      "Mountain",
      "Rocky"
    ],
    "description": "Surface: asphalt; Surface: gravel; Surface: concrete (and 103 more segments)",
    "userRating": 3.8,
    "completed": false,
    "elevationAtCenter": 1395,
    "elevationEstimated": true
  },
  {
    "id": 5,
    "trailName": "Pinhoti Trail",
    "state": "Georgia",
    "latitude": 34.146489,
    "longitude": -85.350407,
    "distanceMiles": 357.11,
    "elevationGainFeet": 17855.5,
    "difficultyLevel": "Easy",
    "terrainTypes": [
      "Mixed",
      "Gravel",
      "Dirt",
      "Paved"
    ],
    "description": "Surface: gravel; Surface: dirt; Surface: unpaved (and 2 more segments)",
    "userRating": 3.4,
    "completed": false,
    "elevationAtCenter": 830,
    "elevationEstimated": true
  },
  {
    "id": 6,
    "trailName": "County Road 231",
    "state": "Georgia",
    "latitude": 33.125534,
    "longitude": -86.202493,
    "distanceMiles": 0.07,
    "elevationGainFeet": 2.8,
    "difficultyLevel": "Easy",
    "terrainTypes": [
      "Mixed"
    ],
    "description": "",
    "userRating": 3.2,
    "completed": false,
    "elevationAtCenter": 471,
    "elevationEstimated": true
  },
  {
    "id": 7,
    "trailName": "Tramel Road",
    "state": "Georgia",
    "latitude": 33.123965,
    "longitude": -86.20178,
    "distanceMiles": 0.23,
    "elevationGainFeet": 9.4,
    "difficultyLevel": "Easy",
    "terrainTypes": [
      "Mixed"
    ],
    "description": "",
    "userRating": 3.8,
    "completed": false,
    "elevationAtCenter": 732,
    "elevationEstimated": true
  },
  {
    "id": 8,
    "trailName": "Azelea Road",
    "state": "Georgia",
    "latitude": 33.115147,
    "longitude": -86.206606,
    "distanceMiles": 0.31,
    "elevationGainFeet": 17.7,
    "difficultyLevel": "Easy",
    "terrainTypes": [
      "Mixed"
    ],
    "description": "Trail merged from 2 segments",
    "userRating": 4.0,
    "completed": false,
    "elevationAtCenter": 824,
    "elevationEstimated": true
  },
  {
    "id": 10,
    "trailName": "Lakewood Circle",
    "state": "Georgia",
    "latitude": 33.116299,
    "longitude": -86.202726,
    "distanceMiles": 0.23,
    "elevationGainFeet": 12.3,
    "difficultyLevel": "Easy",
    "terrainTypes": [
      "Mixed"
    ],
    "description": "Trail merged from 2 segments",
    "userRating": 3.6,
    "completed": false,
    "elevationAtCenter": 657,
    "elevationEstimated": true
  },
  {
    "id": 12,
    "trailName": "Redbud Road",
    "state": "Georgia",
    "latitude": 32.689014,
    "longitude": -84.37183,
    "distanceMiles": 1.1,
    "elevationGainFeet": 57.2,
    "difficultyLevel": "Easy",
    "terrainTypes": [
      "Mixed",
      "Dirt"
    ],
    "description": "Surface: dirt",
    "userRating": 3.5,
    "completed": false,
    "elevationAtCenter": 734,
    "elevationEstimated": true
  },
  {
    "id": 15,
    "trailName": "7th Avenue",
    "state": "Georgia",
    "latitude": 34.218742,
    "longitude": -85.224245,
    "distanceMiles": 1.67,
    "elevationGainFeet": 91.0,
    "difficultyLevel": "Easy",
    "terrainTypes": [
      "Mixed"
    ],
    "description": "Trail merged from 3 segments",
    "userRating": 3.5,
    "completed": false,
    "elevationAtCenter": 399,
    "elevationEstimated": true
  },
  {
    "id": 16,
    "trailName": "Oak Hill-Alpine Road",
    "state": "Georgia",
    "latitude": 34.440488,
    "longitude": -85.475718,
    "distanceMiles": 3.27,
    "elevationGainFeet": 145.5,
    "difficultyLevel": "Easy",
    "terrainTypes": [
      "Mixed"
    ],
    "description": "Trail merged from 2 segments",
    "userRating": 4.7,
    "completed": false,
    "elevationAtCenter": 399,
    "elevationEstimated": true
  },
  {
    "id": 18,
    "trailName": "Oakhill-Alpine Road",
    "state": "Georgia",
    "latitude": 34.429642,
    "longitude": -85.465787,
    "distanceMiles": 0.51,
    "elevationGainFeet": 26.0,
    "difficultyLevel": "Easy",
    "terrainTypes": [
      "Mixed"
    ],
    "description": "",
    "userRating": 4.2,
    "completed": false,
    "elevationAtCenter": 712,
    "elevationEstimated": true
  },
  {
    "id": 19,
    "trailName": "Oak Hill Road",
    "state": "Georgia",
    "latitude": 33.93127,
    "longitude": -85.131352,
    "distanceMiles": 3.36,
    "elevationGainFeet": 188.2,
    "difficultyLevel": "Easy",
    "terrainTypes": [
      "Mixed"
    ],
    "description": "Trail merged from 2 segments",
    "userRating": 3.9,
    "completed": false,
    "elevationAtCenter": 382,
    "elevationEstimated": true
  },
  {
    "id": 20,
    "trailName": "Starling Mill Road",
    "state": "Georgia",
    "latitude": 34.38892,
    "longitude": -85.378547,
    "distanceMiles": 1.86,
    "elevationGainFeet": 94.9,
    "difficultyLevel": "Easy",
    "terrainTypes": [
      "Mixed"
    ],
    "description": "",
    "userRating": 3.3,
    "completed": false,
    "elevationAtCenter": 712,
    "elevationEstimated": true
  },
  {
    "id": 21,
    "trailName": "Tennessee Avenue",
    "state": "Georgia",
    "latitude": 34.404782,
    "longitude": -85.407475,
    "distanceMiles": 0.12,
    "elevationGainFeet": 5.0,
    "difficultyLevel": "Easy",
    "terrainTypes": [
      "Mixed"
    ],
    "description": "",
    "userRating": 4.9,
    "completed": false,
    "elevationAtCenter": 794,
    "elevationEstimated": true
  },
  {
    "id": 22,
    "trailName": "Augusta Canal Trail",
    "state": "Georgia",
    "latitude": 33.523894,
    "longitude": -82.015048,
    "distanceMiles": 9.26,
    "elevationGainFeet": 453.7,
    "difficultyLevel": "Easy",
    "terrainTypes": [
      "Dirt",
      "Gravel",
      "Paved"
    ],
    "description": "Surface: ground; Surface: gravel; Surface: dirt (and 1 more segments)",
    "userRating": 4.0,
    "completed": false,
    "elevationAtCenter": 468,
    "elevationEstimated": true
  },
  {
    "id": 23,
    "trailName": "Mill Road",
    "state": "Georgia",
    "latitude": 34.354316,
    "longitude": -84.190812,
    "distanceMiles": 1.48,
    "elevationGainFeet": 82.9,
    "difficultyLevel": "Easy",
    "terrainTypes": [
      "Mixed"
    ],
    "description": "Surface: compacted",
    "userRating": 5.0,
    "completed": false,
    "elevationAtCenter": 602,
    "elevationEstimated": true
  },
  {
    "id": 24,
    "trailName": "South Campus Road",
    "state": "Georgia",
    "latitude": 34.956294,
    "longitude": -85.379993,
    "distanceMiles": 0.27,
    "elevationGainFeet": 11.1,
    "difficultyLevel": "Easy",
    "terrainTypes": [
      "Mixed"
    ],
    "description": "",
    "userRating": 3.1,
    "completed": false,
    "elevationAtCenter": 612,
    "elevationEstimated": true
  },
  {
    "id": 27,
    "trailName": "Old State Road",
    "state": "Georgia",
    "latitude": 34.726619,
    "longitude": -85.467207,
    "distanceMiles": 0.22,
    "elevationGainFeet": 10.9,
    "difficultyLevel": "Easy",
    "terrainTypes": [
      "Mixed"
    ],
    "description": "",
    "userRating": 3.2,
    "completed": false,
    "elevationAtCenter": 769,
    "elevationEstimated": true
  },
  {
    "id": 28,
    "trailName": "Stanley Creek Road",
    "state": "Georgia",
    "latitude": 34.782576,
    "longitude": -84.283264,
    "distanceMiles": 2.85,
    "elevationGainFeet": 65.5,
    "difficultyLevel": "Easy",
    "terrainTypes": [
      "Paved"
    ],
    "description": "Surface: asphalt",
    "userRating": 3.7,
    "completed": false,
    "elevationAtCenter": 382,
    "elevationEstimated": true
  },
  {
    "id": 29,
    "trailName": "Shallowford Bridge Road",
    "state": "Georgia",
    "latitude": 34.786791,
    "longitude": -84.257129,
    "distanceMiles": 0.56,
    "elevationGainFeet": 14.4,
    "difficultyLevel": "Easy",
    "terrainTypes": [
      "Paved",
      "Mixed"
    ],
    "description": "Surface: asphalt; Surface: wood; Surface: compacted",
    "userRating": 4.0,
    "completed": false,
    "elevationAtCenter": 713,
    "elevationEstimated": true
  },
  {
    "id": 30,
    "trailName": "Cave Spring Cedartown Road Southwest",
    "state": "Georgia",
    "latitude": 34.086034,
    "longitude": -85.338208,
    "distanceMiles": 1.2,
    "elevationGainFeet": 62.4,
    "difficultyLevel": "Easy",
    "terrainTypes": [
      "Mixed"
    ],
    "description": "",
    "userRating": 4.6,
    "completed": false,
    "elevationAtCenter": 594,
    "elevationEstimated": true
  },
  {
    "id": 31,
    "trailName": "Rolater Drive",
    "state": "Georgia",
    "latitude": 34.10592,
    "longitude": -85.335246,
    "distanceMiles": 0.26,
    "elevationGainFeet": 10.8,
    "difficultyLevel": "Easy",
    "terrainTypes": [
      "Mixed"
    ],
    "description": "",
    "userRating": 4.7,
    "completed": false,
    "elevationAtCenter": 653,
    "elevationEstimated": true
  },
  {
    "id": 32,
    "trailName": "Mills Road Southwest",
    "state": "Georgia",
    "latitude": 34.128201,
    "longitude": -85.335328,
    "distanceMiles": 1.6,
    "elevationGainFeet": 74.4,
    "difficultyLevel": "Easy",
    "terrainTypes": [
      "Mixed"
    ],
    "description": "",
    "userRating": 4.6,
    "completed": false,
    "elevationAtCenter": 443,
    "elevationEstimated": true
  },
  {
    "id": 33,
    "trailName": "Huffaker Road Northwest",
    "state": "Georgia",
    "latitude": 34.273726,
    "longitude": -85.344406,
    "distanceMiles": 2.64,
    "elevationGainFeet": 109.6,
    "difficultyLevel": "Easy",
    "terrainTypes": [
      "Mixed"
    ],
    "description": "Trail merged from 2 segments",
    "userRating": 3.6,
    "completed": false,
    "elevationAtCenter": 453,
    "elevationEstimated": true
  },
  {
    "id": 34,
    "trailName": "Simms Mountain Rail Trail",
    "state": "Georgia",
    "latitude": 34.288558,
    "longitude": -85.369273,
    "distanceMiles": 8.08,
    "elevationGainFeet": 436.3,
    "difficultyLevel": "Easy",
    "terrainTypes": [
      "Mixed"
    ],
    "description": "Trail merged from 2 segments",
    "userRating": 3.1,
    "completed": false,
    "elevationAtCenter": 718,
    "elevationEstimated": true
  },
  {
    "id": 35,
    "trailName": "Old Cedartown Road",
    "state": "Georgia",
    "latitude": 34.100868,
    "longitude": -85.336587,
    "distanceMiles": 0.59,
    "elevationGainFeet": 27.7,
    "difficultyLevel": "Easy",
    "terrainTypes": [
      "Mixed"
    ],
    "description": "",
    "userRating": 3.3,
    "completed": false,
    "elevationAtCenter": 684,
    "elevationEstimated": true
  },
  {
    "id": 36,
    "trailName": "Rock Creek Road",
    "state": "Georgia",
    "latitude": 34.281059,
    "longitude": -83.975486,
    "distanceMiles": 2.48,
    "elevationGainFeet": 129.0,
    "difficultyLevel": "Easy",
    "terrainTypes": [
      "Mixed",
      "Gravel"
    ],
    "description": "Surface: compacted; Surface: gravel",
    "userRating": 5.0,
    "completed": false,
    "elevationAtCenter": 634,
    "elevationEstimated": true
  },
  {
    "id": 37,
    "trailName": "Bushy Head Road",
    "state": "Georgia",
    "latitude": 34.839038,
    "longitude": -84.412982,
    "distanceMiles": 1.59,
    "elevationGainFeet": 75.5,
    "difficultyLevel": "Easy",
    "terrainTypes": [
      "Mixed",
      "Paved"
    ],
    "description": "Surface: asphalt",
    "userRating": 4.4,
    "completed": false,
    "elevationAtCenter": 445,
    "elevationEstimated": true
  },
  {
    "id": 39,
    "trailName": "Tibbs Bridge Road Southeast",
    "state": "Georgia",
    "latitude": 34.752118,
    "longitude": -84.875198,
    "distanceMiles": 3.27,
    "elevationGainFeet": 143.9,
    "difficultyLevel": "Easy",
    "terrainTypes": [
      "Mixed"
    ],
    "description": "Trail merged from 5 segments",
    "userRating": 4.5,
    "completed": false,
    "elevationAtCenter": 658,
    "elevationEstimated": true
  },
  {
    "id": 41,
    "trailName": "Old Federal Road South",
    "state": "Georgia",
    "latitude": 34.699643,
    "longitude": -84.727795,
    "distanceMiles": 1.13,
    "elevationGainFeet": 48.6,
    "difficultyLevel": "Easy",
    "terrainTypes": [
      "Mixed"
    ],
    "description": "Trail merged from 3 segments",
    "userRating": 3.3,
    "completed": false,
    "elevationAtCenter": 816,
    "elevationEstimated": true
  },
  {
    "id": 42,
    "trailName": "Smyrna Ramhurst Road",
    "state": "Georgia",
    "latitude": 34.710527,
    "longitude": -84.761728,
    "distanceMiles": 3.58,
    "elevationGainFeet": 102.9,
    "difficultyLevel": "Easy",
    "terrainTypes": [
      "Paved",
      "Mixed"
    ],
    "description": "Surface: asphalt; Surface: concrete",
    "userRating": 4.6,
    "completed": false,
    "elevationAtCenter": 765,
    "elevationEstimated": true
  },
  {
    "id": 46,
    "trailName": "Callie Jones Road",
    "state": "Georgia",
    "latitude": 34.762472,
    "longitude": -84.842093,
    "distanceMiles": 1.14,
    "elevationGainFeet": 54.1,
    "difficultyLevel": "Easy",
    "terrainTypes": [
      "Mixed"
    ],
    "description": "",
    "userRating": 4.1,
    "completed": false,
    "elevationAtCenter": 725,
    "elevationEstimated": true
  },
  {
    "id": 47,
    "trailName": "Spring Place Smyrna Road",
    "state": "Georgia",
    "latitude": 34.741985,
    "longitude": -84.801702,
    "distanceMiles": 2.7,
    "elevationGainFeet": 159.3,
    "difficultyLevel": "Easy",
    "terrainTypes": [
      "Mixed",
      "Paved"
    ],
    "description": "Surface: asphalt",
    "userRating": 3.4,
    "completed": false,
    "elevationAtCenter": 628,
    "elevationEstimated": true
  },
  {
    "id": 49,
    "trailName": "Tibbs Bridge Road",
    "state": "Georgia",
    "latitude": 34.747985,
    "longitude": -84.873911,
    "distanceMiles": 3.2,
    "elevationGainFeet": 148.8,
    "difficultyLevel": "Easy",
    "terrainTypes": [
      "Mixed"
    ],
    "description": "Trail merged from 4 segments",
    "userRating": 3.0,
    "completed": false,
    "elevationAtCenter": 443,
    "elevationEstimated": true
  },
  {
    "id": 53,
    "trailName": "Lula Lake Road",
    "state": "Georgia",
    "latitude": 34.699702,
    "longitude": -85.419595,
    "distanceMiles": 0.31,
    "elevationGainFeet": 14.3,
    "difficultyLevel": "Easy",
    "terrainTypes": [
      "Mixed"
    ],
    "description": "Trail merged from 2 segments",
    "userRating": 3.8,
    "completed": false,
    "elevationAtCenter": 602,
    "elevationEstimated": true
  },
  {
    "id": 54,
    "trailName": "Yankee Road",
    "state": "Georgia",
    "latitude": 34.682889,
    "longitude": -85.472472,
    "distanceMiles": 0.14,
    "elevationGainFeet": 5.7,
    "difficultyLevel": "Easy",
    "terrainTypes": [
      "Mixed"
    ],
    "description": "",
    "userRating": 4.5,
    "completed": false,
    "elevationAtCenter": 571,
    "elevationEstimated": true
  },
  {
    "id": 58,
    "trailName": "Dug Gap Mountain Road",
    "state": "Georgia",
    "latitude": 34.752915,
    "longitude": -85.009583,
    "distanceMiles": 1.75,
    "elevationGainFeet": 98.0,
    "difficultyLevel": "Easy",
    "terrainTypes": [
      "Mixed"
    ],
    "description": "",
    "userRating": 4.0,
    "completed": false,
    "elevationAtCenter": 582,
    "elevationEstimated": true
  },
  {
    "id": 59,
    "trailName": "Airport Road",
    "state": "Georgia",
    "latitude": 32.39389,
    "longitude": -84.050117,
    "distanceMiles": 6.01,
    "elevationGainFeet": 252.4,
    "difficultyLevel": "Easy",
    "terrainTypes": [
      "Mixed",
      "Dirt"
    ],
    "description": "Surface: dirt",
    "userRating": 3.2,
    "completed": false,
    "elevationAtCenter": 454,
    "elevationEstimated": true
  },
  {
    "id": 61,
    "trailName": "West Walnut Avenue",
    "state": "Georgia",
    "latitude": 34.760314,
    "longitude": -84.987573,
    "distanceMiles": 2.99,
    "elevationGainFeet": 128.6,
    "difficultyLevel": "Easy",
    "terrainTypes": [
      "Mixed",
      "Paved"
    ],
    "description": "Surface: asphalt",
    "userRating": 4.9,
    "completed": false,
    "elevationAtCenter": 456,
    "elevationEstimated": true
  },
  {
    "id": 63,
    "trailName": "East Walnut Avenue",
    "state": "Georgia",
    "latitude": 34.761558,
    "longitude": -84.942449,
    "distanceMiles": 3.73,
    "elevationGainFeet": 203.3,
    "difficultyLevel": "Easy",
    "terrainTypes": [
      "Mixed",
      "Paved"
    ],
    "description": "Surface: asphalt",
    "userRating": 4.3,
    "completed": false,
    "elevationAtCenter": 359,
    "elevationEstimated": true
  },
  {
    "id": 64,
    "trailName": "Strawberry Knob Trail",
    "state": "Georgia",
    "latitude": 35.354181,
    "longitude": -84.026612,
    "distanceMiles": 1.75,
    "elevationGainFeet": 99.8,
    "difficultyLevel": "Easy",
    "terrainTypes": [
      "Mixed"
    ],
    "description": "Trail merged from 2 segments",
    "userRating": 3.5,
    "completed": false,
    "elevationAtCenter": 364,
    "elevationEstimated": true
  },
  {
    "id": 65,
    "trailName": "Yellow Creek Mountain Trail",
    "state": "Georgia",
    "latitude": 35.434763,
    "longitude": -83.882737,
    "distanceMiles": 7.33,
    "elevationGainFeet": 377.5,
    "difficultyLevel": "Easy",
    "terrainTypes": [
      "Mixed",
      "Dirt"
    ],
    "description": "Surface: ground; Surface: wood",
    "userRating": 5.0,
    "completed": false,
    "elevationAtCenter": 433,
    "elevationEstimated": true
  },
  {
    "id": 67,
    "trailName": "Fontana Dam Road",
    "state": "Georgia",
    "latitude": 35.452477,
    "longitude": -83.804084,
    "distanceMiles": 0.46,
    "elevationGainFeet": 11.4,
    "difficultyLevel": "Easy",
    "terrainTypes": [
      "Paved"
    ],
    "description": "Surface: asphalt",
    "userRating": 3.4,
    "completed": false,
    "elevationAtCenter": 829,
    "elevationEstimated": true
  },
  {
    "id": 68,
    "trailName": "Big Creek Entrance Road",
    "state": "Georgia",
    "latitude": 35.757226,
    "longitude": -83.106882,
    "distanceMiles": 0.89,
    "elevationGainFeet": 37.6,
    "difficultyLevel": "Easy",
    "terrainTypes": [
      "Gravel"
    ],
    "description": "Surface: gravel",
    "userRating": 3.3,
    "completed": false,
    "elevationAtCenter": 444,
    "elevationEstimated": true
  },
  {
    "id": 69,
    "trailName": "Nantahala Dam Drive",
    "state": "Georgia",
    "latitude": 35.202361,
    "longitude": -83.657666,
    "distanceMiles": 0.06,
    "elevationGainFeet": 3.4,
    "difficultyLevel": "Easy",
    "terrainTypes": [
      "Mixed",
      "Paved"
    ],
    "description": "Surface: concrete",
    "userRating": 3.6,
    "completed": false,
    "elevationAtCenter": 725,
    "elevationEstimated": true
  },
  {
    "id": 70,
    "trailName": "Wide Horizon Drive",
    "state": "Georgia",
    "latitude": 35.140635,
    "longitude": -83.382898,
    "distanceMiles": 3.15,
    "elevationGainFeet": 90.6,
    "difficultyLevel": "Easy",
    "terrainTypes": [
      "Paved"
    ],
    "description": "Surface: asphalt",
    "userRating": 4.1,
    "completed": false,
    "elevationAtCenter": 385,
    "elevationEstimated": true
  },
  {
    "id": 71,
    "trailName": "Belden Circle",
    "state": "Georgia",
    "latitude": 35.156549,
    "longitude": -83.393088,
    "distanceMiles": 0.36,
    "elevationGainFeet": 8.0,
    "difficultyLevel": "Easy",
    "terrainTypes": [
      "Paved"
    ],
    "description": "Surface: asphalt",
    "userRating": 4.8,
    "completed": false,
    "elevationAtCenter": 759,
    "elevationEstimated": true
  },
  {
    "id": 72,
    "trailName": "Wayah Road",
    "state": "Georgia",
    "latitude": 35.203425,
    "longitude": -83.644548,
    "distanceMiles": 0.75,
    "elevationGainFeet": 17.4,
    "difficultyLevel": "Easy",
    "terrainTypes": [
      "Paved"
    ],
    "description": "Surface: asphalt",
    "userRating": 3.7,
    "completed": false,
    "elevationAtCenter": 823,
    "elevationEstimated": true
  },
  {
    "id": 73,
    "trailName": "Clarks Chapel Road",
    "state": "Georgia",
    "latitude": 35.112185,
    "longitude": -83.372109,
    "distanceMiles": 2.09,
    "elevationGainFeet": 59.0,
    "difficultyLevel": "Easy",
    "terrainTypes": [
      "Paved"
    ],
    "description": "Surface: asphalt",
    "userRating": 4.3,
    "completed": false,
    "elevationAtCenter": 383,
    "elevationEstimated": true
  },
  {
    "id": 74,
    "trailName": "Ray Cove Road",
    "state": "Georgia",
    "latitude": 35.1777,
    "longitude": -83.429142,
    "distanceMiles": 0.68,
    "elevationGainFeet": 14.6,
    "difficultyLevel": "Easy",
    "terrainTypes": [
      "Paved",
      "Gravel"
    ],
    "description": "Surface: asphalt; Surface: gravel",
    "userRating": 4.8,
    "completed": false,
    "elevationAtCenter": 756,
    "elevationEstimated": true
  },
  {
    "id": 75,
    "trailName": "Pressley Road",
    "state": "Georgia",
    "latitude": 35.172929,
    "longitude": -83.415755,
    "distanceMiles": 1.05,
    "elevationGainFeet": 31.2,
    "difficultyLevel": "Easy",
    "terrainTypes": [
      "Paved"
    ],
    "description": "Surface: asphalt",
    "userRating": 3.7,
    "completed": false,
    "elevationAtCenter": 769,
    "elevationEstimated": true
  },
  {
    "id": 76,
    "trailName": "Roller Mill Road",
    "state": "Georgia",
    "latitude": 35.162544,
    "longitude": -83.399914,
    "distanceMiles": 0.86,
    "elevationGainFeet": 22.6,
    "difficultyLevel": "Easy",
    "terrainTypes": [
      "Paved"
    ],
    "description": "Surface: asphalt",
    "userRating": 3.8,
    "completed": false,
    "elevationAtCenter": 695,
    "elevationEstimated": true
  },
  {
    "id": 77,
    "trailName": "Carolina Drive",
    "state": "Georgia",
    "latitude": 35.167132,
    "longitude": -83.405828,
    "distanceMiles": 0.22,
    "elevationGainFeet": 6.1,
    "difficultyLevel": "Easy",
    "terrainTypes": [
      "Paved"
    ],
    "description": "Surface: asphalt",
    "userRating": 4.3,
    "completed": false,
    "elevationAtCenter": 641,
    "elevationEstimated": true
  },
  {
    "id": 78,
    "trailName": "Sloan Road",
    "state": "Georgia",
    "latitude": 35.168942,
    "longitude": -83.407521,
    "distanceMiles": 0.26,
    "elevationGainFeet": 5.7,
    "difficultyLevel": "Easy",
    "terrainTypes": [
      "Paved"
    ],
    "description": "Surface: asphalt",
    "userRating": 3.1,
    "completed": false,
    "elevationAtCenter": 497,
    "elevationEstimated": true
  },
  {
    "id": 79,
    "trailName": "Prentiss Bridge Road",
    "state": "Georgia",
    "latitude": 35.122214,
    "longitude": -83.375663,
    "distanceMiles": 0.31,
    "elevationGainFeet": 6.7,
    "difficultyLevel": "Easy",
    "terrainTypes": [
      "Paved"
    ],
    "description": "Surface: asphalt",
    "userRating": 5.0,
    "completed": false,
    "elevationAtCenter": 737,
    "elevationEstimated": true
  },
  {
    "id": 80,
    "trailName": "Sycamore Creek Trail",
    "state": "Georgia",
    "latitude": 35.299121,
    "longitude": -84.063085,
    "distanceMiles": 5.73,
    "elevationGainFeet": 246.4,
    "difficultyLevel": "Easy",
    "terrainTypes": [
      "Mixed"
    ],
    "description": "",
    "userRating": 4.2,
    "completed": false,
    "elevationAtCenter": 416,
    "elevationEstimated": true
  },
  {
    "id": 82,
    "trailName": "Childers Creek Road",
    "state": "Georgia",
    "latitude": 35.189988,
    "longitude": -84.496896,
    "distanceMiles": 0.55,
    "elevationGainFeet": 30.8,
    "difficultyLevel": "Easy",
    "terrainTypes": [
      "Mixed"
    ],
    "description": "",
    "userRating": 4.5,
    "completed": false,
    "elevationAtCenter": 522,
    "elevationEstimated": true
  },
  {
    "id": 84,
    "trailName": "River Levee Trail",
    "state": "Georgia",
    "latitude": 33.433666,
    "longitude": -81.956311,
    "distanceMiles": 6.82,
    "elevationGainFeet": 196.1,
    "difficultyLevel": "Easy",
    "terrainTypes": [
      "Paved",
      "Mixed"
    ],
    "description": "Surface: asphalt; Surface: concrete; Surface: wood",
    "userRating": 3.2,
    "completed": false,
    "elevationAtCenter": 585,
    "elevationEstimated": true
  },
  {
    "id": 86,
    "trailName": "Appalachian Trail",
    "state": "Georgia",
    "latitude": 34.783802,
    "longitude": -83.85583,
    "distanceMiles": 145.76,
    "elevationGainFeet": 6923.6,
    "difficultyLevel": "Easy",
    "terrainTypes": [
      "Mixed",
      "Dirt",
      "Mountain",
      "Paved",
      "Gravel",
      "Grass"
    ],
    "description": "Surface: ground; Surface: paving_stones; Surface: asphalt (and 4 more segments)",
    "userRating": 3.3,
    "completed": false,
    "elevationAtCenter": 1145,
    "elevationEstimated": true
  },
  {
    "id": 88,
    "trailName": "Old Appalachian Trail Route",
    "state": "Georgia",
    "latitude": 34.654398,
    "longitude": -84.032688,
    "distanceMiles": 0.9,
    "elevationGainFeet": 53.1,
    "difficultyLevel": "Easy",
    "terrainTypes": [
      "Mixed"
    ],
    "description": "Trail merged from 3 segments",
    "userRating": 4.3,
    "completed": false,
    "elevationAtCenter": 788,
    "elevationEstimated": true
  },
  {
    "id": 105,
    "trailName": "Appalachian National Scenic Trail",
    "state": "Georgia",
    "latitude": 34.794997,
    "longitude": -83.710788,
    "distanceMiles": 5.72,
    "elevationGainFeet": 297.4,
    "difficultyLevel": "Easy",
    "terrainTypes": [
      "Mixed"
    ],
    "description": "Trail merged from 2 segments",
    "userRating": 3.5,
    "completed": false,
    "elevationAtCenter": 834,
    "elevationEstimated": true
  },
  {
    "id": 119,
    "trailName": "Johns Mountain Trail",
    "state": "Georgia",
    "latitude": 34.611752,
    "longitude": -85.098697,
    "distanceMiles": 4.52,
    "elevationGainFeet": 201.1,
    "difficultyLevel": "Easy",
    "terrainTypes": [
      "Mixed"
    ],
    "description": "Trail merged from 2 segments",
    "userRating": 4.0,
    "completed": false,
    "elevationAtCenter": 779,
    "elevationEstimated": true
  },
  {
    "id": 121,
    "trailName": "Mountaintown Creek",
    "state": "Georgia",
    "latitude": 34.847779,
    "longitude": -84.547537,
    "distanceMiles": 9.39,
    "elevationGainFeet": 394.4,
    "difficultyLevel": "Easy",
    "terrainTypes": [
      "Mixed"
    ],
    "description": "Trail merged from 5 segments",
    "userRating": 3.4,
    "completed": false,
    "elevationAtCenter": 754,
    "elevationEstimated": true
  },
  {
    "id": 122,
    "trailName": "Benton MacKaye Trail",
    "state": "Georgia",
    "latitude": 34.921853,
    "longitude": -84.313733,
    "distanceMiles": 130.78,
    "elevationGainFeet": 5885.1,
    "difficultyLevel": "Easy",
    "terrainTypes": [
      "Mixed",
      "Dirt",
      "Mountain"
    ],
    "description": "Surface: dirt; Surface: unpaved; Surface: ground",
    "userRating": 4.1,
    "completed": false,
    "elevationAtCenter": 1300,
    "elevationEstimated": true
  },
  {
    "id": 124,
    "trailName": "Hemp Top",
    "state": "Georgia",
    "latitude": 34.967607,
    "longitude": -84.522716,
    "distanceMiles": 9.51,
    "elevationGainFeet": 485.0,
    "difficultyLevel": "Easy",
    "terrainTypes": [
      "Mixed",
      "Mountain",
      "Dirt"
    ],
    "description": "Surface: dirt",
    "userRating": 3.0,
    "completed": false,
    "elevationAtCenter": 1292,
    "elevationEstimated": true
  },
  {
    "id": 125,
    "trailName": "Chickamauga Creek Trail Spur",
    "state": "Georgia",
    "latitude": 34.731341,
    "longitude": -85.144425,
    "distanceMiles": 0.12,
    "elevationGainFeet": 5.6,
    "difficultyLevel": "Easy",
    "terrainTypes": [
      "Mixed"
    ],
    "description": "Trail merged from 2 segments",
    "userRating": 3.4,
    "completed": false,
    "elevationAtCenter": 583,
    "elevationEstimated": true
  },
  {
    "id": 126,
    "trailName": "South Fork",
    "state": "Georgia",
    "latitude": 34.882413,
    "longitude": -84.524593,
    "distanceMiles": 3.8,
    "elevationGainFeet": 212.8,
    "difficultyLevel": "Easy",
    "terrainTypes": [
      "Mixed"
    ],
    "description": "Trail merged from 4 segments",
    "userRating": 4.0,
    "completed": false,
    "elevationAtCenter": 642,
    "elevationEstimated": true
  },
  {
    "id": 128,
    "trailName": "Pocket Trail",
    "state": "Georgia",
    "latitude": 34.58911,
    "longitude": -85.076487,
    "distanceMiles": 5.18,
    "elevationGainFeet": 235.7,
    "difficultyLevel": "Easy",
    "terrainTypes": [
      "Mixed"
    ],
    "description": "Trail merged from 6 segments",
    "userRating": 4.6,
    "completed": false,
    "elevationAtCenter": 721,
    "elevationEstimated": true
  },
  {
    "id": 135,
    "trailName": "Chickamauga Creek Trail",
    "state": "Georgia",
    "latitude": 34.720548,
    "longitude": -85.153848,
    "distanceMiles": 12.28,
    "elevationGainFeet": 718.4,
    "difficultyLevel": "Easy",
    "terrainTypes": [
      "Mixed"
    ],
    "description": "Trail merged from 2 segments",
    "userRating": 4.4,
    "completed": false,
    "elevationAtCenter": 367,
    "elevationEstimated": true
  },
  {
    "id": 142,
    "trailName": "Pinhoti",
    "state": "Georgia",
    "latitude": 34.63836,
    "longitude": -85.088109,
    "distanceMiles": 1.72,
    "elevationGainFeet": 98.0,
    "difficultyLevel": "Easy",
    "terrainTypes": [
      "Mixed"
    ],
    "description": "Trail merged from 5 segments",
    "userRating": 3.7,
    "completed": false,
    "elevationAtCenter": 684,
    "elevationEstimated": true
  },
  {
    "id": 146,
    "trailName": "Bartram Trail",
    "state": "Georgia",
    "latitude": 34.912112,
    "longitude": -83.307097,
    "distanceMiles": 131.6,
    "elevationGainFeet": 5987.8,
    "difficultyLevel": "Easy",
    "terrainTypes": [
      "Dirt",
      "Mixed",
      "Mountain",
      "Gravel",
      "Paved"
    ],
    "description": "Surface: ground; Surface: dirt; Surface: wood (and 4 more segments)",
    "userRating": 3.9,
    "completed": false,
    "elevationAtCenter": 1041,
    "elevationEstimated": true
  },
  {
    "id": 147,
    "trailName": "Keown Falls Trail",
    "state": "Georgia",
    "latitude": 34.611546,
    "longitude": -85.093016,
    "distanceMiles": 1.46,
    "elevationGainFeet": 79.6,
    "difficultyLevel": "Easy",
    "terrainTypes": [
      "Mixed"
    ],
    "description": "Trail merged from 2 segments",
    "userRating": 3.5,
    "completed": false,
    "elevationAtCenter": 739,
    "elevationEstimated": true
  },
  {
    "id": 148,
    "trailName": "Hitchiti Trail",
    "state": "Georgia",
    "latitude": 33.030607,
    "longitude": -83.717642,
    "distanceMiles": 4.78,
    "elevationGainFeet": 191.2,
    "difficultyLevel": "Easy",
    "terrainTypes": [
      "Mixed"
    ],
    "description": "Trail merged from 11 segments",
    "userRating": 3.7,
    "completed": false,
    "elevationAtCenter": 770,
    "elevationEstimated": true
  },
  {
    "id": 149,
    "trailName": "Boarding House Trail",
    "state": "Georgia",
    "latitude": 33.732601,
    "longitude": -83.288624,
    "distanceMiles": 0.3,
    "elevationGainFeet": 12.8,
    "difficultyLevel": "Easy",
    "terrainTypes": [
      "Mixed"
    ],
    "description": "Trail merged from 2 segments",
    "userRating": 5.0,
    "completed": false,
    "elevationAtCenter": 355,
    "elevationEstimated": true
  },
  {
    "id": 154,
    "trailName": "Hitchiti Loop Trail",
    "state": "Georgia",
    "latitude": 33.031295,
    "longitude": -83.713643,
    "distanceMiles": 1.72,
    "elevationGainFeet": 89.4,
    "difficultyLevel": "Easy",
    "terrainTypes": [
      "Mixed"
    ],
    "description": "Trail merged from 2 segments",
    "userRating": 3.4,
    "completed": false,
    "elevationAtCenter": 374,
    "elevationEstimated": true
  },
  {
    "id": 155,
    "trailName": "Chattooga River Trail",
    "state": "Georgia",
    "latitude": 34.832409,
    "longitude": -83.280355,
    "distanceMiles": 18.86,
    "elevationGainFeet": 1112.7,
    "difficultyLevel": "Easy",
    "terrainTypes": [
      "Mixed"
    ],
    "description": "Trail merged from 57 segments",
    "userRating": 4.1,
    "completed": false,
    "elevationAtCenter": 728,
    "elevationEstimated": true
  },
  {
    "id": 156,
    "trailName": "Arkaquah Trail",
    "state": "Georgia",
    "latitude": 34.877217,
    "longitude": -83.844974,
    "distanceMiles": 10.62,
    "elevationGainFeet": 610.6,
    "difficultyLevel": "Easy",
    "terrainTypes": [
      "Mixed"
    ],
    "description": "Trail merged from 2 segments",
    "userRating": 3.5,
    "completed": false,
    "elevationAtCenter": 785,
    "elevationEstimated": true
  },
  {
    "id": 157,
    "trailName": "Pocket Trail Connector",
    "state": "Georgia",
    "latitude": 34.585753,
    "longitude": -85.078514,
    "distanceMiles": 0.8,
    "elevationGainFeet": 43.6,
    "difficultyLevel": "Easy",
    "terrainTypes": [
      "Mixed"
    ],
    "description": "Trail merged from 2 segments",
    "userRating": 4.3,
    "completed": false,
    "elevationAtCenter": 719,
    "elevationEstimated": true
  },
  {
    "id": 158,
    "trailName": "Bartram/Chattooga Connector",
    "state": "Georgia",
    "latitude": 34.862579,
    "longitude": -83.251529,
    "distanceMiles": 1.42,
    "elevationGainFeet": 78.8,
    "difficultyLevel": "Easy",
    "terrainTypes": [
      "Mixed"
    ],
    "description": "Trail merged from 2 segments",
    "userRating": 4.4,
    "completed": false,
    "elevationAtCenter": 561,
    "elevationEstimated": true
  },
  {
    "id": 160,
    "trailName": "Stanley Gap / Benton MacKaye Trail",
    "state": "Georgia",
    "latitude": 34.793196,
    "longitude": -84.320741,
    "distanceMiles": 4.16,
    "elevationGainFeet": 195.5,
    "difficultyLevel": "Easy",
    "terrainTypes": [
      "Mixed"
    ],
    "description": "Trail merged from 2 segments",
    "userRating": 4.7,
    "completed": false,
    "elevationAtCenter": 824,
    "elevationEstimated": true
  },
  {
    "id": 161,
    "trailName": "Benton MacKaye & Duncan Ridge Trail",
    "state": "Georgia",
    "latitude": 34.737261,
    "longitude": -84.167182,
    "distanceMiles": 31.0,
    "elevationGainFeet": 1612.0,
    "difficultyLevel": "Easy",
    "terrainTypes": [
      "Mixed",
      "Dirt",
      "Mountain"
    ],
    "description": "Surface: dirt",
    "userRating": 3.3,
    "completed": false,
    "elevationAtCenter": 854,
    "elevationEstimated": true
  },
  {
    "id": 162,
    "trailName": "Iron Mountain",
    "state": "Georgia",
    "latitude": 34.979583,
    "longitude": -84.664203,
    "distanceMiles": 15.44,
    "elevationGainFeet": 748.8,
    "difficultyLevel": "Easy",
    "terrainTypes": [
      "Mixed"
    ],
    "description": "Trail merged from 4 segments",
    "userRating": 3.3,
    "completed": false,
    "elevationAtCenter": 487,
    "elevationEstimated": true
  },
  {
    "id": 164,
    "trailName": "Appalachian Approach Trail",
    "state": "Georgia",
    "latitude": 34.598402,
    "longitude": -84.222599,
    "distanceMiles": 15.3,
    "elevationGainFeet": 795.6,
    "difficultyLevel": "Easy",
    "terrainTypes": [
      "Mixed",
      "Dirt",
      "Paved"
    ],
    "description": "Surface: ground; Surface: rubber; Surface: wood (and 1 more segments)",
    "userRating": 3.4,
    "completed": false,
    "elevationAtCenter": 594,
    "elevationEstimated": true
  },
  {
    "id": 168,
    "trailName": "Mill Street",
    "state": "Georgia",
    "latitude": 34.114266,
    "longitude": -85.340644,
    "distanceMiles": 0.72,
    "elevationGainFeet": 36.0,
    "difficultyLevel": "Easy",
    "terrainTypes": [
      "Mixed"
    ],
    "description": "Trail merged from 2 segments",
    "userRating": 3.6,
    "completed": false,
    "elevationAtCenter": 590,
    "elevationEstimated": true
  },
  {
    "id": 201,
    "trailName": "Bob Callan Trail",
    "state": "Georgia",
    "latitude": 33.896497,
    "longitude": -84.460556,
    "distanceMiles": 1.41,
    "elevationGainFeet": 67.0,
    "difficultyLevel": "Easy",
    "terrainTypes": [
      "Mixed",
      "Paved"
    ],
    "description": "Surface: asphalt; Surface: concrete",
    "userRating": 4.9,
    "completed": false,
    "elevationAtCenter": 745,
    "elevationEstimated": true
  },
  {
    "id": 207,
    "trailName": "Stone Mountain Trail",
    "state": "Georgia",
    "latitude": 33.773453,
    "longitude": -84.310268,
    "distanceMiles": 1.33,
    "elevationGainFeet": 36.2,
    "difficultyLevel": "Easy",
    "terrainTypes": [
      "Paved"
    ],
    "description": "Surface: concrete; Surface: asphalt; Surface: paved",
    "userRating": 3.5,
    "completed": false,
    "elevationAtCenter": 799,
    "elevationEstimated": true
  },
  {
    "id": 209,
    "trailName": "South Peachtree Creek PATH Trail",
    "state": "Georgia",
    "latitude": 33.806263,
    "longitude": -84.299536,
    "distanceMiles": 0.02,
    "elevationGainFeet": 1.1,
    "difficultyLevel": "Easy",
    "terrainTypes": [
      "Mixed"
    ],
    "description": "",
    "userRating": 3.3,
    "completed": false,
    "elevationAtCenter": 722,
    "elevationEstimated": true
  },
  {
    "id": 218,
    "trailName": "Mount Sterling Road",
    "state": "Georgia",
    "latitude": 35.766251,
    "longitude": -83.108819,
    "distanceMiles": 1.19,
    "elevationGainFeet": 56.8,
    "difficultyLevel": "Easy",
    "terrainTypes": [
      "Gravel"
    ],
    "description": "Surface: gravel",
    "userRating": 5.0,
    "completed": false,
    "elevationAtCenter": 816,
    "elevationEstimated": true
  },
  {
    "id": 219,
    "trailName": "Decatur Trolley Trail",
    "state": "Georgia",
    "latitude": 33.762133,
    "longitude": -84.295009,
    "distanceMiles": 0.1,
    "elevationGainFeet": 5.9,
    "difficultyLevel": "Easy",
    "terrainTypes": [
      "Mixed"
    ],
    "description": "Trail merged from 4 segments",
    "userRating": 3.2,
    "completed": false,
    "elevationAtCenter": 769,
    "elevationEstimated": true
  },
  {
    "id": 221,
    "trailName": "Walnut Avenue",
    "state": "Georgia",
    "latitude": 34.761096,
    "longitude": -85.00348,
    "distanceMiles": 0.06,
    "elevationGainFeet": 3.4,
    "difficultyLevel": "Easy",
    "terrainTypes": [
      "Mixed"
    ],
    "description": "",
    "userRating": 3.1,
    "completed": false,
    "elevationAtCenter": 822,
    "elevationEstimated": true
  },
  {
    "id": 224,
    "trailName": "Alabama Street",
    "state": "Georgia",
    "latitude": 34.107889,
    "longitude": -85.33779,
    "distanceMiles": 0.28,
    "elevationGainFeet": 15.4,
    "difficultyLevel": "Easy",
    "terrainTypes": [
      "Mixed"
    ],
    "description": "",
    "userRating": 3.5,
    "completed": false,
    "elevationAtCenter": 600,
    "elevationEstimated": true
  },
  {
    "id": 226,
    "trailName": "Chief Ladiga Trail",
    "state": "Georgia",
    "latitude": 33.915639,
    "longitude": -85.499727,
    "distanceMiles": 0.48,
    "elevationGainFeet": 28.3,
    "difficultyLevel": "Easy",
    "terrainTypes": [
      "Mixed"
    ],
    "description": "Trail merged from 3 segments",
    "userRating": 5.0,
    "completed": false,
    "elevationAtCenter": 548,
    "elevationEstimated": true
  },
  {
    "id": 228,
    "trailName": "Fort Oglethorpe Greenway",
    "state": "Georgia",
    "latitude": 34.946288,
    "longitude": -85.247743,
    "distanceMiles": 6.64,
    "elevationGainFeet": 139.4,
    "difficultyLevel": "Easy",
    "terrainTypes": [
      "Paved"
    ],
    "description": "Surface: concrete; Surface: asphalt",
    "userRating": 4.1,
    "completed": false,
    "elevationAtCenter": 794,
    "elevationEstimated": true
  },
  {
    "id": 232,
    "trailName": "Blacks Bluff Road Southwest",
    "state": "Georgia",
    "latitude": 34.184528,
    "longitude": -85.309252,
    "distanceMiles": 4.6,
    "elevationGainFeet": 236.9,
    "difficultyLevel": "Easy",
    "terrainTypes": [
      "Mixed"
    ],
    "description": "Trail merged from 2 segments",
    "userRating": 3.6,
    "completed": false,
    "elevationAtCenter": 653,
    "elevationEstimated": true
  },
  {
    "id": 233,
    "trailName": "Old Highway 411",
    "state": "Georgia",
    "latitude": 34.697312,
    "longitude": -84.735491,
    "distanceMiles": 0.03,
    "elevationGainFeet": 0.8,
    "difficultyLevel": "Easy",
    "terrainTypes": [
      "Paved"
    ],
    "description": "Surface: asphalt",
    "userRating": 5.0,
    "completed": false,
    "elevationAtCenter": 553,
    "elevationEstimated": true
  },
  {
    "id": 237,
    "trailName": "Smyrna Church Road",
    "state": "Georgia",
    "latitude": 34.729513,
    "longitude": -84.783372,
    "distanceMiles": 0.13,
    "elevationGainFeet": 5.3,
    "difficultyLevel": "Easy",
    "terrainTypes": [
      "Mixed"
    ],
    "description": "",
    "userRating": 4.4,
    "completed": false,
    "elevationAtCenter": 792,
    "elevationEstimated": true
  },
  {
    "id": 314,
    "trailName": "cross Scott Boulevard",
    "state": "Georgia",
    "latitude": 33.787881,
    "longitude": -84.299314,
    "distanceMiles": 0.03,
    "elevationGainFeet": 0.8,
    "difficultyLevel": "Easy",
    "terrainTypes": [
      "Paved"
    ],
    "description": "Surface: concrete",
    "userRating": 4.3,
    "completed": false,
    "elevationAtCenter": 556,
    "elevationEstimated": true
  },
  {
    "id": 323,
    "trailName": "Alabama Highway",
    "state": "Georgia",
    "latitude": 34.261046,
    "longitude": -85.331478,
    "distanceMiles": 1.42,
    "elevationGainFeet": 32.7,
    "difficultyLevel": "Easy",
    "terrainTypes": [
      "Paved"
    ],
    "description": "Surface: asphalt",
    "userRating": 3.4,
    "completed": false,
    "elevationAtCenter": 682,
    "elevationEstimated": true
  },
  {
    "id": 331,
    "trailName": "State Route 157",
    "state": "Georgia",
    "latitude": 34.767938,
    "longitude": -85.44316,
    "distanceMiles": 3.8,
    "elevationGainFeet": 209.0,
    "difficultyLevel": "Easy",
    "terrainTypes": [
      "Mixed"
    ],
    "description": "",
    "userRating": 4.2,
    "completed": false,
    "elevationAtCenter": 680,
    "elevationEstimated": true
  },
  {
    "id": 333,
    "trailName": "Lookout Mountain Scenic Highway",
    "state": "Georgia",
    "latitude": 34.816408,
    "longitude": -85.454219,
    "distanceMiles": 1.7,
    "elevationGainFeet": 74.0,
    "difficultyLevel": "Easy",
    "terrainTypes": [
      "Mixed",
      "Paved"
    ],
    "description": "Surface: asphalt",
    "userRating": 4.2,
    "completed": false,
    "elevationAtCenter": 817,
    "elevationEstimated": true
  },
  {
    "id": 342,
    "trailName": "South Peachtree Creek Trail",
    "state": "Georgia",
    "latitude": 33.80462,
    "longitude": -84.303818,
    "distanceMiles": 0.01,
    "elevationGainFeet": 0.2,
    "difficultyLevel": "Easy",
    "terrainTypes": [
      "Paved"
    ],
    "description": "Surface: concrete",
    "userRating": 4.9,
    "completed": false,
    "elevationAtCenter": 510,
    "elevationEstimated": true
  },
  {
    "id": 346,
    "trailName": "Balsam Mountain Trail",
    "state": "Georgia",
    "latitude": 35.658109,
    "longitude": -83.194455,
    "distanceMiles": 1.94,
    "elevationGainFeet": 97.0,
    "difficultyLevel": "Easy",
    "terrainTypes": [
      "Dirt"
    ],
    "description": "Surface: ground",
    "userRating": 4.1,
    "completed": false,
    "elevationAtCenter": 390,
    "elevationEstimated": true
  },
  {
    "id": 347,
    "trailName": "Baxter Creek Trail",
    "state": "Georgia",
    "latitude": 35.727572,
    "longitude": -83.114434,
    "distanceMiles": 6.02,
    "elevationGainFeet": 264.9,
    "difficultyLevel": "Easy",
    "terrainTypes": [
      "Dirt"
    ],
    "description": "Surface: ground",
    "userRating": 4.1,
    "completed": false,
    "elevationAtCenter": 358,
    "elevationEstimated": true
  },
  {
    "id": 348,
    "trailName": "Beech Gap Trail",
    "state": "Georgia",
    "latitude": 35.631191,
    "longitude": -83.215687,
    "distanceMiles": 5.25,
    "elevationGainFeet": 273.0,
    "difficultyLevel": "Easy",
    "terrainTypes": [
      "Dirt"
    ],
    "description": "Surface: ground",
    "userRating": 3.5,
    "completed": false,
    "elevationAtCenter": 354,
    "elevationEstimated": true
  },
  {
    "id": 350,
    "trailName": "Enloe Creek Trail",
    "state": "Georgia",
    "latitude": 35.613389,
    "longitude": -83.265659,
    "distanceMiles": 3.5,
    "elevationGainFeet": 187.2,
    "difficultyLevel": "Easy",
    "terrainTypes": [
      "Dirt"
    ],
    "description": "Surface: ground",
    "userRating": 3.6,
    "completed": false,
    "elevationAtCenter": 737,
    "elevationEstimated": true
  },
  {
    "id": 351,
    "trailName": "Hyatt Ridge Trail",
    "state": "Georgia",
    "latitude": 35.620999,
    "longitude": -83.238486,
    "distanceMiles": 1.67,
    "elevationGainFeet": 66.8,
    "difficultyLevel": "Easy",
    "terrainTypes": [
      "Dirt"
    ],
    "description": "Surface: ground",
    "userRating": 3.5,
    "completed": false,
    "elevationAtCenter": 370,
    "elevationEstimated": true
  },
  {
    "id": 352,
    "trailName": "Lakeshore Trail",
    "state": "Georgia",
    "latitude": 35.460019,
    "longitude": -83.675711,
    "distanceMiles": 33.45,
    "elevationGainFeet": 1622.3,
    "difficultyLevel": "Easy",
    "terrainTypes": [
      "Dirt",
      "Paved",
      "Mixed"
    ],
    "description": "Surface: ground; Surface: paved; Surface: wood",
    "userRating": 4.1,
    "completed": false,
    "elevationAtCenter": 527,
    "elevationEstimated": true
  },
  {
    "id": 353,
    "trailName": "Mount Sterling Ridge Trail",
    "state": "Georgia",
    "latitude": 35.679752,
    "longitude": -83.153479,
    "distanceMiles": 5.59,
    "elevationGainFeet": 271.1,
    "difficultyLevel": "Easy",
    "terrainTypes": [
      "Dirt"
    ],
    "description": "Surface: ground",
    "userRating": 3.3,
    "completed": false,
    "elevationAtCenter": 447,
    "elevationEstimated": true
  },
  {
    "id": 355,
    "trailName": "Newton Bald Trail",
    "state": "Georgia",
    "latitude": 35.549971,
    "longitude": -83.335241,
    "distanceMiles": 5.4,
    "elevationGainFeet": 229.5,
    "difficultyLevel": "Easy",
    "terrainTypes": [
      "Dirt"
    ],
    "description": "Surface: ground",
    "userRating": 3.4,
    "completed": false,
    "elevationAtCenter": 495,
    "elevationEstimated": true
  },
  {
    "id": 357,
    "trailName": "Noland Creek Trail",
    "state": "Georgia",
    "latitude": 35.498271,
    "longitude": -83.491963,
    "distanceMiles": 9.24,
    "elevationGainFeet": 457.4,
    "difficultyLevel": "Easy",
    "terrainTypes": [
      "Dirt",
      "Mixed"
    ],
    "description": "Surface: ground",
    "userRating": 3.3,
    "completed": false,
    "elevationAtCenter": 409,
    "elevationEstimated": true
  },
  {
    "id": 358,
    "trailName": "Pole Road Creek Trail",
    "state": "Georgia",
    "latitude": 35.535911,
    "longitude": -83.440996,
    "distanceMiles": 3.14,
    "elevationGainFeet": 147.6,
    "difficultyLevel": "Easy",
    "terrainTypes": [
      "Dirt",
      "Mixed"
    ],
    "description": "Surface: ground",
    "userRating": 3.2,
    "completed": false,
    "elevationAtCenter": 424,
    "elevationEstimated": true
  },
  {
    "id": 359,
    "trailName": "Sunkota Ridge Trail",
    "state": "Georgia",
    "latitude": 35.535624,
    "longitude": -83.396245,
    "distanceMiles": 4.8,
    "elevationGainFeet": 220.8,
    "difficultyLevel": "Easy",
    "terrainTypes": [
      "Dirt"
    ],
    "description": "Surface: ground",
    "userRating": 3.2,
    "completed": false,
    "elevationAtCenter": 762,
    "elevationEstimated": true
  },
  {
    "id": 360,
    "trailName": "Thomas Divide Trail",
    "state": "Georgia",
    "latitude": 35.543665,
    "longitude": -83.368147,
    "distanceMiles": 0.37,
    "elevationGainFeet": 17.0,
    "difficultyLevel": "Easy",
    "terrainTypes": [
      "Dirt"
    ],
    "description": "Surface: ground",
    "userRating": 3.3,
    "completed": false,
    "elevationAtCenter": 662,
    "elevationEstimated": true
  },
  {
    "id": 361,
    "trailName": "West Rome Bypass",
    "state": "Georgia",
    "latitude": 34.232167,
    "longitude": -85.292576,
    "distanceMiles": 5.73,
    "elevationGainFeet": 136.1,
    "difficultyLevel": "Easy",
    "terrainTypes": [
      "Paved",
      "Mixed"
    ],
    "description": "Surface: asphalt; Surface: concrete",
    "userRating": 3.6,
    "completed": false,
    "elevationAtCenter": 705,
    "elevationEstimated": true
  },
  {
    "id": 362,
    "trailName": "Bluff Trail",
    "state": "Georgia",
    "latitude": 34.973914,
    "longitude": -85.366171,
    "distanceMiles": 7.93,
    "elevationGainFeet": 535.3,
    "difficultyLevel": "Easy",
    "terrainTypes": [
      "Mountain"
    ],
    "description": "Trail merged from 6 segments",
    "userRating": 4.1,
    "completed": false,
    "elevationAtCenter": 1220,
    "elevationEstimated": true
  },
  {
    "id": 365,
    "trailName": "Cravens House Trail",
    "state": "Georgia",
    "latitude": 35.010874,
    "longitude": -85.34659,
    "distanceMiles": 0.74,
    "elevationGainFeet": 36.3,
    "difficultyLevel": "Easy",
    "terrainTypes": [
      "Dirt",
      "Mountain"
    ],
    "description": "Surface: ground",
    "userRating": 3.4,
    "completed": false,
    "elevationAtCenter": 1048,
    "elevationEstimated": true
  },
  {
    "id": 366,
    "trailName": "Guild Trail",
    "state": "Georgia",
    "latitude": 35.013881,
    "longitude": -85.35001,
    "distanceMiles": 1.2,
    "elevationGainFeet": 52.4,
    "difficultyLevel": "Easy",
    "terrainTypes": [
      "Gravel",
      "Mountain"
    ],
    "description": "Surface: gravel",
    "userRating": 4.6,
    "completed": false,
    "elevationAtCenter": 1147,
    "elevationEstimated": true
  },
  {
    "id": 367,
    "trailName": "Jackson Gap Trail",
    "state": "Georgia",
    "latitude": 34.964076,
    "longitude": -85.380372,
    "distanceMiles": 2.23,
    "elevationGainFeet": 153.9,
    "difficultyLevel": "Easy",
    "terrainTypes": [
      "Mountain"
    ],
    "description": "Trail merged from 5 segments",
    "userRating": 3.3,
    "completed": false,
    "elevationAtCenter": 862,
    "elevationEstimated": true
  },
  {
    "id": 369,
    "trailName": "John Smith and Jackson Gap Trails",
    "state": "Georgia",
    "latitude": 34.970646,
    "longitude": -85.376377,
    "distanceMiles": 0.2,
    "elevationGainFeet": 17.0,
    "difficultyLevel": "Easy",
    "terrainTypes": [
      "Mountain"
    ],
    "description": "Trail merged from 2 segments",
    "userRating": 3.1,
    "completed": false,
    "elevationAtCenter": 1203,
    "elevationEstimated": true
  },
  {
    "id": 370,
    "trailName": "Rifle Pits Trail",
    "state": "Georgia",
    "latitude": 35.012936,
    "longitude": -85.34677,
    "distanceMiles": 0.62,
    "elevationGainFeet": 44.2,
    "difficultyLevel": "Easy",
    "terrainTypes": [
      "Mountain"
    ],
    "description": "",
    "userRating": 3.4,
    "completed": false,
    "elevationAtCenter": 965,
    "elevationEstimated": true
  },
  {
    "id": 371,
    "trailName": "Upper Truck Trail",
    "state": "Georgia",
    "latitude": 34.987994,
    "longitude": -85.367359,
    "distanceMiles": 3.85,
    "elevationGainFeet": 190.6,
    "difficultyLevel": "Easy",
    "terrainTypes": [
      "Gravel",
      "Mountain"
    ],
    "description": "Surface: gravel",
    "userRating": 4.5,
    "completed": false,
    "elevationAtCenter": 980,
    "elevationEstimated": true
  },
  {
    "id": 374,
    "trailName": "Bear Creek",
    "state": "Georgia",
    "latitude": 34.828036,
    "longitude": -84.569733,
    "distanceMiles": 5.13,
    "elevationGainFeet": 277.0,
    "difficultyLevel": "Easy",
    "terrainTypes": [
      "Mixed",
      "Dirt"
    ],
    "description": "Surface: dirt",
    "userRating": 4.8,
    "completed": false,
    "elevationAtCenter": 638,
    "elevationEstimated": true
  },
  {
    "id": 379,
    "trailName": "Bradley Fork Trail",
    "state": "Georgia",
    "latitude": 35.569631,
    "longitude": -83.309842,
    "distanceMiles": 1.08,
    "elevationGainFeet": 46.4,
    "difficultyLevel": "Easy",
    "terrainTypes": [
      "Dirt"
    ],
    "description": "Surface: ground",
    "userRating": 3.7,
    "completed": false,
    "elevationAtCenter": 376,
    "elevationEstimated": true
  },
  {
    "id": 380,
    "trailName": "Smokemont Stables Trail",
    "state": "Georgia",
    "latitude": 35.557586,
    "longitude": -83.309918,
    "distanceMiles": 0.87,
    "elevationGainFeet": 37.8,
    "difficultyLevel": "Easy",
    "terrainTypes": [
      "Dirt"
    ],
    "description": "Surface: ground",
    "userRating": 4.3,
    "completed": false,
    "elevationAtCenter": 797,
    "elevationEstimated": true
  },
  {
    "id": 383,
    "trailName": "West Palisades",
    "state": "Georgia",
    "latitude": 33.884561,
    "longitude": -84.446197,
    "distanceMiles": 5.73,
    "elevationGainFeet": 309.4,
    "difficultyLevel": "Easy",
    "terrainTypes": [
      "Dirt",
      "Mountain",
      "Gravel"
    ],
    "description": "Surface: dirt; Surface: gravel",
    "userRating": 3.5,
    "completed": false,
    "elevationAtCenter": 878,
    "elevationEstimated": true
  },
  {
    "id": 387,
    "trailName": "Skyline Drive",
    "state": "Georgia",
    "latitude": 33.32823,
    "longitude": -85.990022,
    "distanceMiles": 0.26,
    "elevationGainFeet": 14.2,
    "difficultyLevel": "Easy",
    "terrainTypes": [
      "Mixed",
      "Dirt"
    ],
    "description": "Surface: ground",
    "userRating": 5.0,
    "completed": false,
    "elevationAtCenter": 719,
    "elevationEstimated": true
  },
  {
    "id": 392,
    "trailName": "County Road 500",
    "state": "Georgia",
    "latitude": 33.647997,
    "longitude": -85.631399,
    "distanceMiles": 0.11,
    "elevationGainFeet": 4.8,
    "difficultyLevel": "Easy",
    "terrainTypes": [
      "Gravel"
    ],
    "description": "Surface: gravel",
    "userRating": 4.6,
    "completed": false,
    "elevationAtCenter": 406,
    "elevationEstimated": true
  },
  {
    "id": 394,
    "trailName": "Skyway Motorway",
    "state": "Georgia",
    "latitude": 33.72493,
    "longitude": -85.601319,
    "distanceMiles": 0.07,
    "elevationGainFeet": 2.9,
    "difficultyLevel": "Easy",
    "terrainTypes": [
      "Mixed"
    ],
    "description": "",
    "userRating": 3.6,
    "completed": false,
    "elevationAtCenter": 533,
    "elevationEstimated": true
  },
  {
    "id": 397,
    "trailName": "Chasteen Creek Trail",
    "state": "Georgia",
    "latitude": 35.597022,
    "longitude": -83.295254,
    "distanceMiles": 3.95,
    "elevationGainFeet": 181.7,
    "difficultyLevel": "Easy",
    "terrainTypes": [
      "Dirt"
    ],
    "description": "Surface: ground",
    "userRating": 4.0,
    "completed": false,
    "elevationAtCenter": 502,
    "elevationEstimated": true
  },
  {
    "id": 398,
    "trailName": "Deep Creek Trail",
    "state": "Georgia",
    "latitude": 35.525066,
    "longitude": -83.42045,
    "distanceMiles": 0.7,
    "elevationGainFeet": 31.2,
    "difficultyLevel": "Easy",
    "terrainTypes": [
      "Dirt",
      "Mountain"
    ],
    "description": "Surface: ground",
    "userRating": 3.4,
    "completed": false,
    "elevationAtCenter": 1339,
    "elevationEstimated": true
  },
  {
    "id": 400,
    "trailName": "Lakeview Drive West",
    "state": "Georgia",
    "latitude": 35.457108,
    "longitude": -83.809988,
    "distanceMiles": 0.73,
    "elevationGainFeet": 20.6,
    "difficultyLevel": "Easy",
    "terrainTypes": [
      "Paved",
      "Mixed"
    ],
    "description": "Surface: asphalt",
    "userRating": 4.8,
    "completed": false,
    "elevationAtCenter": 603,
    "elevationEstimated": true
  },
  {
    "id": 401,
    "trailName": "Martins Gap Trail",
    "state": "Georgia",
    "latitude": 35.518482,
    "longitude": -83.414147,
    "distanceMiles": 1.45,
    "elevationGainFeet": 79.8,
    "difficultyLevel": "Easy",
    "terrainTypes": [
      "Dirt"
    ],
    "description": "Surface: ground",
    "userRating": 3.4,
    "completed": false,
    "elevationAtCenter": 640,
    "elevationEstimated": true
  },
  {
    "id": 404,
    "trailName": "Homestead Trail",
    "state": "Georgia",
    "latitude": 34.205861,
    "longitude": -84.739777,
    "distanceMiles": 7.1,
    "elevationGainFeet": 326.6,
    "difficultyLevel": "Easy",
    "terrainTypes": [
      "Dirt",
      "Mountain",
      "Mixed"
    ],
    "description": "Surface: ground; Surface: dirt",
    "userRating": 3.1,
    "completed": false,
    "elevationAtCenter": 1262,
    "elevationEstimated": true
  },
  {
    "id": 407,
    "trailName": "Deer Run Trail",
    "state": "Georgia",
    "latitude": 32.544213,
    "longitude": -82.118124,
    "distanceMiles": 5.72,
    "elevationGainFeet": 283.1,
    "difficultyLevel": "Easy",
    "terrainTypes": [
      "Mixed"
    ],
    "description": "Surface: compacted",
    "userRating": 4.2,
    "completed": false,
    "elevationAtCenter": 849,
    "elevationEstimated": true
  },
  {
    "id": 414,
    "trailName": "Thunder Rock Campground",
    "state": "Georgia",
    "latitude": 35.075717,
    "longitude": -84.484739,
    "distanceMiles": 0.27,
    "elevationGainFeet": 7.2,
    "difficultyLevel": "Easy",
    "terrainTypes": [
      "Paved"
    ],
    "description": "Surface: paved",
    "userRating": 3.7,
    "completed": false,
    "elevationAtCenter": 536,
    "elevationEstimated": true
  },
  {
    "id": 415,
    "trailName": "Mountain to River Trail",
    "state": "Georgia",
    "latitude": 33.944824,
    "longitude": -84.5466,
    "distanceMiles": 1.78,
    "elevationGainFeet": 87.2,
    "difficultyLevel": "Easy",
    "terrainTypes": [
      "Mixed",
      "Paved"
    ],
    "description": "Surface: brick; Surface: concrete; Surface: asphalt",
    "userRating": 3.3,
    "completed": false,
    "elevationAtCenter": 668,
    "elevationEstimated": true
  },
  {
    "id": 424,
    "trailName": "Access Road / Old RR Grade",
    "state": "Georgia",
    "latitude": 34.928556,
    "longitude": -85.376485,
    "distanceMiles": 1.47,
    "elevationGainFeet": 129.0,
    "difficultyLevel": "Easy",
    "terrainTypes": [
      "Mountain"
    ],
    "description": "Trail merged from 6 segments",
    "userRating": 4.0,
    "completed": false,
    "elevationAtCenter": 1247,
    "elevationEstimated": true
  },
  {
    "id": 425,
    "trailName": "Parking Loop",
    "state": "Georgia",
    "latitude": 34.922599,
    "longitude": -85.379612,
    "distanceMiles": 0.16,
    "elevationGainFeet": 13.1,
    "difficultyLevel": "Easy",
    "terrainTypes": [
      "Mountain"
    ],
    "description": "",
    "userRating": 4.6,
    "completed": false,
    "elevationAtCenter": 1079,
    "elevationEstimated": true
  },
  {
    "id": 426,
    "trailName": "Spur and Connector Trails",
    "state": "Georgia",
    "latitude": 34.925648,
    "longitude": -85.377009,
    "distanceMiles": 0.13,
    "elevationGainFeet": 11.4,
    "difficultyLevel": "Easy",
    "terrainTypes": [
      "Mountain"
    ],
    "description": "Trail merged from 5 segments",
    "userRating": 3.8,
    "completed": false,
    "elevationAtCenter": 1227,
    "elevationEstimated": true
  },
  {
    "id": 428,
    "trailName": "F4",
    "state": "Georgia",
    "latitude": 34.909425,
    "longitude": -85.384642,
    "distanceMiles": 3.16,
    "elevationGainFeet": 156.4,
    "difficultyLevel": "Easy",
    "terrainTypes": [
      "Mixed"
    ],
    "description": "Trail merged from 2 segments",
    "userRating": 4.0,
    "completed": false,
    "elevationAtCenter": 549,
    "elevationEstimated": true
  },
  {
    "id": 430,
    "trailName": "Balsam Mountain Road",
    "state": "Georgia",
    "latitude": 35.622941,
    "longitude": -83.211382,
    "distanceMiles": 0.19,
    "elevationGainFeet": 8.0,
    "difficultyLevel": "Easy",
    "terrainTypes": [
      "Gravel"
    ],
    "description": "Surface: gravel",
    "userRating": 3.8,
    "completed": false,
    "elevationAtCenter": 623,
    "elevationEstimated": true
  },
  {
    "id": 431,
    "trailName": "Bankhead",
    "state": "Georgia",
    "latitude": 34.85064,
    "longitude": -85.427091,
    "distanceMiles": 0.4,
    "elevationGainFeet": 17.2,
    "difficultyLevel": "Easy",
    "terrainTypes": [
      "Mixed"
    ],
    "description": "Trail merged from 2 segments",
    "userRating": 4.2,
    "completed": false,
    "elevationAtCenter": 496,
    "elevationEstimated": true
  },
  {
    "id": 432,
    "trailName": "Cloudland Canyon Connector #1",
    "state": "Georgia",
    "latitude": 34.842069,
    "longitude": -85.437064,
    "distanceMiles": 3.14,
    "elevationGainFeet": 166.4,
    "difficultyLevel": "Easy",
    "terrainTypes": [
      "Mixed"
    ],
    "description": "Trail merged from 2 segments",
    "userRating": 3.5,
    "completed": false,
    "elevationAtCenter": 836,
    "elevationEstimated": true
  },
  {
    "id": 433,
    "trailName": "Long Branch",
    "state": "Georgia",
    "latitude": 34.870237,
    "longitude": -85.406695,
    "distanceMiles": 14.02,
    "elevationGainFeet": 1724.5,
    "difficultyLevel": "Moderate",
    "terrainTypes": [
      "Mixed"
    ],
    "description": "Trail merged from 2 segments",
    "userRating": 4.4,
    "completed": false,
    "elevationAtCenter": 352,
    "elevationEstimated": true
  },
  {
    "id": 445,
    "trailName": "Gahuti",
    "state": "Georgia",
    "latitude": 34.763834,
    "longitude": -84.704037,
    "distanceMiles": 15.06,
    "elevationGainFeet": 722.9,
    "difficultyLevel": "Easy",
    "terrainTypes": [
      "Dirt",
      "Mixed"
    ],
    "description": "Surface: ground; Surface: dirt; Surface: wood",
    "userRating": 3.0,
    "completed": false,
    "elevationAtCenter": 506,
    "elevationEstimated": true
  },
  {
    "id": 448,
    "trailName": "201",
    "state": "Georgia",
    "latitude": 34.787264,
    "longitude": -84.713341,
    "distanceMiles": 0.08,
    "elevationGainFeet": 3.3,
    "difficultyLevel": "Easy",
    "terrainTypes": [
      "Mixed"
    ],
    "description": "Trail merged from 2 segments",
    "userRating": 4.5,
    "completed": false,
    "elevationAtCenter": 473,
    "elevationEstimated": true
  },
  {
    "id": 452,
    "trailName": "Big Rock Trail",
    "state": "Georgia",
    "latitude": 34.758092,
    "longitude": -84.711857,
    "distanceMiles": 0.6,
    "elevationGainFeet": 35.4,
    "difficultyLevel": "Easy",
    "terrainTypes": [
      "Dirt"
    ],
    "description": "Surface: ground",
    "userRating": 3.6,
    "completed": false,
    "elevationAtCenter": 788,
    "elevationEstimated": true
  },
  {
    "id": 474,
    "trailName": "Mill Village Trail",
    "state": "Georgia",
    "latitude": 33.482742,
    "longitude": -81.989397,
    "distanceMiles": 2.26,
    "elevationGainFeet": 61.6,
    "difficultyLevel": "Easy",
    "terrainTypes": [
      "Paved",
      "Mixed"
    ],
    "description": "Surface: asphalt",
    "userRating": 3.7,
    "completed": false,
    "elevationAtCenter": 499,
    "elevationEstimated": true
  },
  {
    "id": 478,
    "trailName": "Temple Mound Trail",
    "state": "Georgia",
    "latitude": 31.468449,
    "longitude": -84.941774,
    "distanceMiles": 0.97,
    "elevationGainFeet": 56.7,
    "difficultyLevel": "Easy",
    "terrainTypes": [
      "Mixed"
    ],
    "description": "Trail merged from 5 segments",
    "userRating": 4.7,
    "completed": false,
    "elevationAtCenter": 627,
    "elevationEstimated": true
  },
  {
    "id": 480,
    "trailName": "Spruce Pine Trail",
    "state": "Georgia",
    "latitude": 31.460586,
    "longitude": -84.922015,
    "distanceMiles": 5.44,
    "elevationGainFeet": 274.7,
    "difficultyLevel": "Easy",
    "terrainTypes": [
      "Mixed"
    ],
    "description": "Trail merged from 17 segments",
    "userRating": 4.7,
    "completed": false,
    "elevationAtCenter": 651,
    "elevationEstimated": true
  },
  {
    "id": 481,
    "trailName": "Trillium Trail",
    "state": "Georgia",
    "latitude": 31.466498,
    "longitude": -84.924052,
    "distanceMiles": 2.34,
    "elevationGainFeet": 115.8,
    "difficultyLevel": "Easy",
    "terrainTypes": [
      "Dirt",
      "Mixed"
    ],
    "description": "Surface: ground; Surface: wood",
    "userRating": 3.5,
    "completed": false,
    "elevationAtCenter": 409,
    "elevationEstimated": true
  },
  {
    "id": 489,
    "trailName": "White Oak Trail",
    "state": "Georgia",
    "latitude": 31.472396,
    "longitude": -84.938227,
    "distanceMiles": 1.7,
    "elevationGainFeet": 96.9,
    "difficultyLevel": "Easy",
    "terrainTypes": [
      "Dirt",
      "Mixed"
    ],
    "description": "Surface: ground; Surface: wood",
    "userRating": 3.4,
    "completed": false,
    "elevationAtCenter": 784,
    "elevationEstimated": true
  },
  {
    "id": 502,
    "trailName": "Mountain Creek Nature Trail",
    "state": "Georgia",
    "latitude": 32.840299,
    "longitude": -84.831463,
    "distanceMiles": 6.02,
    "elevationGainFeet": 276.9,
    "difficultyLevel": "Easy",
    "terrainTypes": [
      "Mixed"
    ],
    "description": "Blazed Red; Red Blazes; Blazed Red,Greg Nolan,Boy Scouts of America,Eagle Project,Troop 169,Midland GA,2005",
    "userRating": 3.1,
    "completed": false,
    "elevationAtCenter": 642,
    "elevationEstimated": true
  },
  {
    "id": 507,
    "trailName": "Pine Mountain Trail",
    "state": "Georgia",
    "latitude": 32.850696,
    "longitude": -84.766351,
    "distanceMiles": 43.8,
    "elevationGainFeet": 2518.5,
    "difficultyLevel": "Easy",
    "terrainTypes": [
      "Mixed"
    ],
    "description": "Trail merged from 14 segments",
    "userRating": 4.7,
    "completed": false,
    "elevationAtCenter": 565,
    "elevationEstimated": true
  },
  {
    "id": 512,
    "trailName": "CCC Fish Weir",
    "state": "Georgia",
    "latitude": 32.837682,
    "longitude": -84.829936,
    "distanceMiles": 0.02,
    "elevationGainFeet": 0.9,
    "difficultyLevel": "Easy",
    "terrainTypes": [
      "Mixed"
    ],
    "description": "Red Blazes",
    "userRating": 3.0,
    "completed": false,
    "elevationAtCenter": 559,
    "elevationEstimated": true
  },
  {
    "id": 529,
    "trailName": "Brown Thrasher Trail",
    "state": "Georgia",
    "latitude": 32.965638,
    "longitude": -83.490644,
    "distanceMiles": 1.65,
    "elevationGainFeet": 86.6,
    "difficultyLevel": "Easy",
    "terrainTypes": [
      "Mixed",
      "Dirt"
    ],
    "description": "Surface: compacted; Surface: dirt",
    "userRating": 3.1,
    "completed": false,
    "elevationAtCenter": 815,
    "elevationEstimated": true
  },
  {
    "id": 531,
    "trailName": "Watson Pond Dam",
    "state": "Georgia",
    "latitude": 32.545012,
    "longitude": -82.124491,
    "distanceMiles": 0.22,
    "elevationGainFeet": 5.4,
    "difficultyLevel": "Easy",
    "terrainTypes": [
      "Paved"
    ],
    "description": "Surface: concrete",
    "userRating": 4.6,
    "completed": false,
    "elevationAtCenter": 528,
    "elevationEstimated": true
  },
  {
    "id": 544,
    "trailName": "Boardtown Road",
    "state": "Georgia",
    "latitude": 34.834736,
    "longitude": -84.402709,
    "distanceMiles": 0.9,
    "elevationGainFeet": 24.1,
    "difficultyLevel": "Easy",
    "terrainTypes": [
      "Paved"
    ],
    "description": "Surface: asphalt",
    "userRating": 3.4,
    "completed": false,
    "elevationAtCenter": 837,
    "elevationEstimated": true
  },
  {
    "id": 545,
    "trailName": "Ellis Creek Road",
    "state": "Georgia",
    "latitude": 35.186967,
    "longitude": -84.497929,
    "distanceMiles": 0.21,
    "elevationGainFeet": 10.1,
    "difficultyLevel": "Easy",
    "terrainTypes": [
      "Mixed"
    ],
    "description": "",
    "userRating": 4.7,
    "completed": false,
    "elevationAtCenter": 666,
    "elevationEstimated": true
  },
  {
    "id": 547,
    "trailName": "Riverwalk Augusta",
    "state": "Georgia",
    "latitude": 33.480839,
    "longitude": -81.971901,
    "distanceMiles": 0.28,
    "elevationGainFeet": 14.8,
    "difficultyLevel": "Easy",
    "terrainTypes": [
      "Mixed"
    ],
    "description": "Surface: paving_stones",
    "userRating": 3.8,
    "completed": false,
    "elevationAtCenter": 716,
    "elevationEstimated": true
  },
  {
    "id": 548,
    "trailName": "Cloundland Canyon Connector",
    "state": "Georgia",
    "latitude": 34.824393,
    "longitude": -85.458872,
    "distanceMiles": 10.26,
    "elevationGainFeet": 569.4,
    "difficultyLevel": "Easy",
    "terrainTypes": [
      "Dirt",
      "Mixed"
    ],
    "description": "Surface: ground; Surface: wood; Surface: dirt",
    "userRating": 3.5,
    "completed": false,
    "elevationAtCenter": 781,
    "elevationEstimated": true
  },
  {
    "id": 559,
    "trailName": "Appalachian and Benton MacKaye Trail",
    "state": "Georgia",
    "latitude": 34.666051,
    "longitude": -84.178046,
    "distanceMiles": 1.9,
    "elevationGainFeet": 96.0,
    "difficultyLevel": "Easy",
    "terrainTypes": [
      "Mixed"
    ],
    "description": "Trail merged from 6 segments",
    "userRating": 4.0,
    "completed": false,
    "elevationAtCenter": 511,
    "elevationEstimated": true
  },
  {
    "id": 562,
    "trailName": "Orange-Blue Trail",
    "state": "Georgia",
    "latitude": 34.354258,
    "longitude": -84.15101,
    "distanceMiles": 1.91,
    "elevationGainFeet": 89.4,
    "difficultyLevel": "Easy",
    "terrainTypes": [
      "Gravel",
      "Mixed",
      "Dirt",
      "Mountain"
    ],
    "description": "Surface: gravel; Surface: compacted; Surface: dirt",
    "userRating": 3.3,
    "completed": false,
    "elevationAtCenter": 1154,
    "elevationEstimated": true
  },
  {
    "id": 568,
    "trailName": "Amadahy Trail",
    "state": "Georgia",
    "latitude": 34.624983,
    "longitude": -84.649482,
    "distanceMiles": 7.36,
    "elevationGainFeet": 412.2,
    "difficultyLevel": "Easy",
    "terrainTypes": [
      "Mixed"
    ],
    "description": "Trail merged from 2 segments",
    "userRating": 4.5,
    "completed": false,
    "elevationAtCenter": 682,
    "elevationEstimated": true
  },
  {
    "id": 572,
    "trailName": "Wildcat Creek Road / Turner Trail",
    "state": "Georgia",
    "latitude": 34.493134,
    "longitude": -84.285134,
    "distanceMiles": 1.76,
    "elevationGainFeet": 75.7,
    "difficultyLevel": "Easy",
    "terrainTypes": [
      "Mixed"
    ],
    "description": "Trail merged from 6 segments",
    "userRating": 3.2,
    "completed": false,
    "elevationAtCenter": 676,
    "elevationEstimated": true
  },
  {
    "id": 573,
    "trailName": "Tobacco Pouch Trail",
    "state": "Georgia",
    "latitude": 34.508623,
    "longitude": -84.312074,
    "distanceMiles": 2.32,
    "elevationGainFeet": 111.4,
    "difficultyLevel": "Easy",
    "terrainTypes": [
      "Mixed"
    ],
    "description": "Surface: unpaved",
    "userRating": 4.0,
    "completed": false,
    "elevationAtCenter": 846,
    "elevationEstimated": true
  },
  {
    "id": 574,
    "trailName": "Lyerly Dam Road",
    "state": "Georgia",
    "latitude": 34.401442,
    "longitude": -85.39439,
    "distanceMiles": 1.43,
    "elevationGainFeet": 57.2,
    "difficultyLevel": "Easy",
    "terrainTypes": [
      "Mixed"
    ],
    "description": "Trail merged from 3 segments",
    "userRating": 3.8,
    "completed": false,
    "elevationAtCenter": 390,
    "elevationEstimated": true
  },
  {
    "id": 579,
    "trailName": "Spout Springs Road Southwest",
    "state": "Georgia",
    "latitude": 34.152398,
    "longitude": -85.336762,
    "distanceMiles": 2.5,
    "elevationGainFeet": 147.5,
    "difficultyLevel": "Easy",
    "terrainTypes": [
      "Mixed"
    ],
    "description": "Trail merged from 3 segments",
    "userRating": 4.6,
    "completed": false,
    "elevationAtCenter": 488,
    "elevationEstimated": true
  },
  {
    "id": 585,
    "trailName": "Chamberlain",
    "state": "Georgia",
    "latitude": 34.684745,
    "longitude": -85.357884,
    "distanceMiles": 5.66,
    "elevationGainFeet": 234.9,
    "difficultyLevel": "Easy",
    "terrainTypes": [
      "Mixed"
    ],
    "description": "Trail merged from 2 segments",
    "userRating": 4.5,
    "completed": false,
    "elevationAtCenter": 393,
    "elevationEstimated": true
  },
  {
    "id": 586,
    "trailName": "Tellico Reliance Road",
    "state": "Georgia",
    "latitude": 35.189898,
    "longitude": -84.501707,
    "distanceMiles": 0.25,
    "elevationGainFeet": 11.4,
    "difficultyLevel": "Easy",
    "terrainTypes": [
      "Mixed"
    ],
    "description": "Trail merged from 3 segments",
    "userRating": 4.0,
    "completed": false,
    "elevationAtCenter": 441,
    "elevationEstimated": true
  },
  {
    "id": 597,
    "trailName": "abandoned track",
    "state": "Georgia",
    "latitude": 33.669804,
    "longitude": -83.865503,
    "distanceMiles": 12.45,
    "elevationGainFeet": 547.8,
    "difficultyLevel": "Easy",
    "terrainTypes": [
      "Dirt",
      "Mixed",
      "Mountain"
    ],
    "description": "Surface: ground; Surface: dirt",
    "userRating": 3.8,
    "completed": false,
    "elevationAtCenter": 1178,
    "elevationEstimated": true
  },
  {
    "id": 600,
    "trailName": "Nature Trail",
    "state": "Georgia",
    "latitude": 32.86642,
    "longitude": -84.702176,
    "distanceMiles": 4.25,
    "elevationGainFeet": 172.1,
    "difficultyLevel": "Easy",
    "terrainTypes": [
      "Dirt",
      "Mixed"
    ],
    "description": "Surface: ground; Surface: unpaved",
    "userRating": 3.9,
    "completed": false,
    "elevationAtCenter": 451,
    "elevationEstimated": true
  },
  {
    "id": 611,
    "trailName": "Terrora Circle",
    "state": "Georgia",
    "latitude": 34.742421,
    "longitude": -83.403034,
    "distanceMiles": 0.09,
    "elevationGainFeet": 4.2,
    "difficultyLevel": "Easy",
    "terrainTypes": [
      "Mixed"
    ],
    "description": "Trail merged from 3 segments",
    "userRating": 4.1,
    "completed": false,
    "elevationAtCenter": 824,
    "elevationEstimated": true
  },
  {
    "id": 639,
    "trailName": "Haoe Lead Trail",
    "state": "Georgia",
    "latitude": 35.382008,
    "longitude": -83.980003,
    "distanceMiles": 1.48,
    "elevationGainFeet": 82.9,
    "difficultyLevel": "Easy",
    "terrainTypes": [
      "Mixed"
    ],
    "description": "Trail merged from 2 segments",
    "userRating": 4.3,
    "completed": false,
    "elevationAtCenter": 742,
    "elevationEstimated": true
  },
  {
    "id": 644,
    "trailName": "West Fork",
    "state": "Georgia",
    "latitude": 35.05348,
    "longitude": -84.494397,
    "distanceMiles": 3.31,
    "elevationGainFeet": 155.6,
    "difficultyLevel": "Easy",
    "terrainTypes": [
      "Dirt",
      "Mountain"
    ],
    "description": "Surface: ground",
    "userRating": 3.6,
    "completed": false,
    "elevationAtCenter": 904,
    "elevationEstimated": true
  },
  {
    "id": 647,
    "trailName": "Tapoco Road",
    "state": "Georgia",
    "latitude": 35.443851,
    "longitude": -83.937601,
    "distanceMiles": 0.13,
    "elevationGainFeet": 3.4,
    "difficultyLevel": "Easy",
    "terrainTypes": [
      "Paved"
    ],
    "description": "Surface: asphalt",
    "userRating": 4.2,
    "completed": false,
    "elevationAtCenter": 755,
    "elevationEstimated": true
  },
  {
    "id": 650,
    "trailName": "Tobacco Pouch Road and Trail",
    "state": "Georgia",
    "latitude": 34.506344,
    "longitude": -84.326752,
    "distanceMiles": 1.44,
    "elevationGainFeet": 77.8,
    "difficultyLevel": "Easy",
    "terrainTypes": [
      "Mixed"
    ],
    "description": "Trail merged from 2 segments",
    "userRating": 5.0,
    "completed": false,
    "elevationAtCenter": 698,
    "elevationEstimated": true
  },
  {
    "id": 652,
    "trailName": "Tobacco Pouch Road",
    "state": "Georgia",
    "latitude": 34.507074,
    "longitude": -84.333537,
    "distanceMiles": 0.46,
    "elevationGainFeet": 23.2,
    "difficultyLevel": "Easy",
    "terrainTypes": [
      "Mixed"
    ],
    "description": "Trail merged from 3 segments",
    "userRating": 4.1,
    "completed": false,
    "elevationAtCenter": 811,
    "elevationEstimated": true
  },
  {
    "id": 659,
    "trailName": "foot travel only",
    "state": "Georgia",
    "latitude": 34.491948,
    "longitude": -84.277482,
    "distanceMiles": 1.96,
    "elevationGainFeet": 116.6,
    "difficultyLevel": "Easy",
    "terrainTypes": [
      "Mixed"
    ],
    "description": "Trail merged from 2 segments",
    "userRating": 3.9,
    "completed": false,
    "elevationAtCenter": 609,
    "elevationEstimated": true
  },
  {
    "id": 660,
    "trailName": "Turner Trail",
    "state": "Georgia",
    "latitude": 34.499038,
    "longitude": -84.292723,
    "distanceMiles": 1.76,
    "elevationGainFeet": 100.3,
    "difficultyLevel": "Easy",
    "terrainTypes": [
      "Mixed"
    ],
    "description": "Surface: unpaved; Surface: wood",
    "userRating": 4.2,
    "completed": false,
    "elevationAtCenter": 824,
    "elevationEstimated": true
  },
  {
    "id": 662,
    "trailName": "Wildcat Creek Road",
    "state": "Georgia",
    "latitude": 34.784758,
    "longitude": -84.145821,
    "distanceMiles": 3.91,
    "elevationGainFeet": 222.9,
    "difficultyLevel": "Easy",
    "terrainTypes": [
      "Mixed"
    ],
    "description": "Surface: unpaved",
    "userRating": 4.8,
    "completed": false,
    "elevationAtCenter": 704,
    "elevationEstimated": true
  },
  {
    "id": 691,
    "trailName": "John Muir National Recreational Trail",
    "state": "Georgia",
    "latitude": 35.189538,
    "longitude": -84.4444,
    "distanceMiles": 9.31,
    "elevationGainFeet": 526.0,
    "difficultyLevel": "Easy",
    "terrainTypes": [
      "Mixed"
    ],
    "description": "Trail merged from 2 segments",
    "userRating": 4.3,
    "completed": false,
    "elevationAtCenter": 543,
    "elevationEstimated": true
  },
  {
    "id": 692,
    "trailName": "Unicoi Mountain Trail",
    "state": "Georgia",
    "latitude": 35.209807,
    "longitude": -84.322211,
    "distanceMiles": 10.07,
    "elevationGainFeet": 493.4,
    "difficultyLevel": "Easy",
    "terrainTypes": [
      "Mixed"
    ],
    "description": "Trail merged from 3 segments",
    "userRating": 4.3,
    "completed": false,
    "elevationAtCenter": 508,
    "elevationEstimated": true
  },
  {
    "id": 693,
    "trailName": "Stratton Bald Alternate",
    "state": "Georgia",
    "latitude": 35.369755,
    "longitude": -84.008554,
    "distanceMiles": 1.55,
    "elevationGainFeet": 65.1,
    "difficultyLevel": "Easy",
    "terrainTypes": [
      "Mixed"
    ],
    "description": "",
    "userRating": 3.7,
    "completed": false,
    "elevationAtCenter": 674,
    "elevationEstimated": true
  },
  {
    "id": 694,
    "trailName": "FS 205",
    "state": "Georgia",
    "latitude": 34.473484,
    "longitude": -85.293427,
    "distanceMiles": 0.44,
    "elevationGainFeet": 21.6,
    "difficultyLevel": "Easy",
    "terrainTypes": [
      "Gravel"
    ],
    "description": "Surface: gravel",
    "userRating": 3.4,
    "completed": false,
    "elevationAtCenter": 479,
    "elevationEstimated": true
  },
  {
    "id": 698,
    "trailName": "Rough Creek",
    "state": "Georgia",
    "latitude": 35.035782,
    "longitude": -84.501059,
    "distanceMiles": 0.63,
    "elevationGainFeet": 49.1,
    "difficultyLevel": "Easy",
    "terrainTypes": [
      "Mountain"
    ],
    "description": "Trail merged from 2 segments",
    "userRating": 3.3,
    "completed": false,
    "elevationAtCenter": 1014,
    "elevationEstimated": true
  },
  {
    "id": 702,
    "trailName": "Fork Ridge",
    "state": "Georgia",
    "latitude": 35.025317,
    "longitude": -84.50751,
    "distanceMiles": 1.71,
    "elevationGainFeet": 129.5,
    "difficultyLevel": "Easy",
    "terrainTypes": [
      "Mountain"
    ],
    "description": "",
    "userRating": 3.4,
    "completed": false,
    "elevationAtCenter": 931,
    "elevationEstimated": true
  },
  {
    "id": 703,
    "trailName": "Dry Pond Lead",
    "state": "Georgia",
    "latitude": 35.090869,
    "longitude": -84.452828,
    "distanceMiles": 2.32,
    "elevationGainFeet": 134.6,
    "difficultyLevel": "Easy",
    "terrainTypes": [
      "Mixed"
    ],
    "description": "Trail merged from 2 segments",
    "userRating": 3.7,
    "completed": false,
    "elevationAtCenter": 506,
    "elevationEstimated": true
  },
  {
    "id": 704,
    "trailName": "Rock Creek",
    "state": "Georgia",
    "latitude": 34.840837,
    "longitude": -84.604366,
    "distanceMiles": 6.0,
    "elevationGainFeet": 291.0,
    "difficultyLevel": "Easy",
    "terrainTypes": [
      "Mixed",
      "Dirt"
    ],
    "description": "Surface: dirt",
    "userRating": 3.1,
    "completed": false,
    "elevationAtCenter": 627,
    "elevationEstimated": true
  },
  {
    "id": 711,
    "trailName": "Toccoa River Swinging Bridge",
    "state": "Georgia",
    "latitude": 34.736821,
    "longitude": -84.167136,
    "distanceMiles": 0.06,
    "elevationGainFeet": 2.9,
    "difficultyLevel": "Easy",
    "terrainTypes": [
      "Mixed"
    ],
    "description": "Swinging bridge over the Toccoa River",
    "userRating": 3.3,
    "completed": false,
    "elevationAtCenter": 687,
    "elevationEstimated": true
  },
  {
    "id": 717,
    "trailName": "Aska Road",
    "state": "Georgia",
    "latitude": 34.782319,
    "longitude": -84.261856,
    "distanceMiles": 0.37,
    "elevationGainFeet": 9.6,
    "difficultyLevel": "Easy",
    "terrainTypes": [
      "Paved"
    ],
    "description": "Surface: asphalt",
    "userRating": 3.2,
    "completed": false,
    "elevationAtCenter": 714,
    "elevationEstimated": true
  },
  {
    "id": 720,
    "trailName": "Mud Gap Trail",
    "state": "Georgia",
    "latitude": 35.318418,
    "longitude": -84.03653,
    "distanceMiles": 1.52,
    "elevationGainFeet": 61.6,
    "difficultyLevel": "Easy",
    "terrainTypes": [
      "Dirt"
    ],
    "description": "Surface: ground",
    "userRating": 4.5,
    "completed": false,
    "elevationAtCenter": 831,
    "elevationEstimated": true
  },
  {
    "id": 730,
    "trailName": "Osage Overlook",
    "state": "Georgia",
    "latitude": 35.02903,
    "longitude": -83.282212,
    "distanceMiles": 0.02,
    "elevationGainFeet": 0.4,
    "difficultyLevel": "Easy",
    "terrainTypes": [
      "Paved"
    ],
    "description": "Surface: asphalt",
    "userRating": 4.8,
    "completed": false,
    "elevationAtCenter": 476,
    "elevationEstimated": true
  },
  {
    "id": 738,
    "trailName": "Hangover Lead Trail",
    "state": "Georgia",
    "latitude": 35.400076,
    "longitude": -83.97182,
    "distanceMiles": 2.76,
    "elevationGainFeet": 151.8,
    "difficultyLevel": "Easy",
    "terrainTypes": [
      "Mixed"
    ],
    "description": "Trail merged from 3 segments",
    "userRating": 4.4,
    "completed": false,
    "elevationAtCenter": 800,
    "elevationEstimated": true
  },
  {
    "id": 766,
    "trailName": "Frazer Forest",
    "state": "Georgia",
    "latitude": 33.770583,
    "longitude": -84.327699,
    "distanceMiles": 1.3,
    "elevationGainFeet": 74.1,
    "difficultyLevel": "Easy",
    "terrainTypes": [
      "Mixed"
    ],
    "description": "Trail merged from 16 segments",
    "userRating": 3.6,
    "completed": false,
    "elevationAtCenter": 604,
    "elevationEstimated": true
  },
  {
    "id": 769,
    "trailName": "Deepdene Park",
    "state": "Georgia",
    "latitude": 33.772508,
    "longitude": -84.320931,
    "distanceMiles": 0.78,
    "elevationGainFeet": 42.9,
    "difficultyLevel": "Easy",
    "terrainTypes": [
      "Mixed"
    ],
    "description": "Trail merged from 6 segments",
    "userRating": 3.9,
    "completed": false,
    "elevationAtCenter": 600,
    "elevationEstimated": true
  },
  {
    "id": 771,
    "trailName": "Trolley Line Tr Spur",
    "state": "Georgia",
    "latitude": 33.755855,
    "longitude": -84.33353,
    "distanceMiles": 1.1,
    "elevationGainFeet": 61.1,
    "difficultyLevel": "Easy",
    "terrainTypes": [
      "Mixed"
    ],
    "description": "Trail merged from 8 segments",
    "userRating": 4.3,
    "completed": false,
    "elevationAtCenter": 581,
    "elevationEstimated": true
  },
  {
    "id": 777,
    "trailName": "Thunder Rock Trail",
    "state": "Georgia",
    "latitude": 35.073437,
    "longitude": -84.491632,
    "distanceMiles": 1.19,
    "elevationGainFeet": 66.0,
    "difficultyLevel": "Easy",
    "terrainTypes": [
      "Dirt"
    ],
    "description": "Surface: dirt",
    "userRating": 3.5,
    "completed": false,
    "elevationAtCenter": 621,
    "elevationEstimated": true
  },
  {
    "id": 782,
    "trailName": "Augusta Levee Road",
    "state": "Georgia",
    "latitude": 33.497776,
    "longitude": -81.997119,
    "distanceMiles": 0.41,
    "elevationGainFeet": 8.2,
    "difficultyLevel": "Easy",
    "terrainTypes": [
      "Paved",
      "Dirt"
    ],
    "description": "Surface: asphalt; Surface: dirt; Surface: paved",
    "userRating": 4.4,
    "completed": false,
    "elevationAtCenter": 770,
    "elevationEstimated": true
  },
  {
    "id": 792,
    "trailName": "High Water Trail",
    "state": "Georgia",
    "latitude": 35.203314,
    "longitude": -83.659571,
    "distanceMiles": 0.23,
    "elevationGainFeet": 10.1,
    "difficultyLevel": "Easy",
    "terrainTypes": [
      "Gravel"
    ],
    "description": "Surface: gravel",
    "userRating": 3.2,
    "completed": false,
    "elevationAtCenter": 788,
    "elevationEstimated": true
  },
  {
    "id": 793,
    "trailName": "Cloudwalker Cove",
    "state": "Georgia",
    "latitude": 35.221214,
    "longitude": -83.661134,
    "distanceMiles": 0.08,
    "elevationGainFeet": 3.6,
    "difficultyLevel": "Easy",
    "terrainTypes": [
      "Mixed"
    ],
    "description": "Trail merged from 3 segments",
    "userRating": 3.6,
    "completed": false,
    "elevationAtCenter": 760,
    "elevationEstimated": true
  },
  {
    "id": 796,
    "trailName": "High Water Trail Road",
    "state": "Georgia",
    "latitude": 35.214184,
    "longitude": -83.654979,
    "distanceMiles": 1.82,
    "elevationGainFeet": 86.8,
    "difficultyLevel": "Easy",
    "terrainTypes": [
      "Gravel"
    ],
    "description": "Surface: gravel",
    "userRating": 4.4,
    "completed": false,
    "elevationAtCenter": 376,
    "elevationEstimated": true
  },
  {
    "id": 812,
    "trailName": "Winding Stairs Road",
    "state": "Georgia",
    "latitude": 35.284621,
    "longitude": -83.669578,
    "distanceMiles": 0.09,
    "elevationGainFeet": 5.0,
    "difficultyLevel": "Easy",
    "terrainTypes": [
      "Mixed",
      "Paved"
    ],
    "description": "Surface: paved",
    "userRating": 3.9,
    "completed": false,
    "elevationAtCenter": 762,
    "elevationEstimated": true
  },
  {
    "id": 823,
    "trailName": "Nantahala Bikeway",
    "state": "Georgia",
    "latitude": 35.278657,
    "longitude": -83.676364,
    "distanceMiles": 1.24,
    "elevationGainFeet": 35.6,
    "difficultyLevel": "Easy",
    "terrainTypes": [
      "Paved",
      "Mountain"
    ],
    "description": "Surface: concrete; Surface: compacted; Surface: asphalt",
    "userRating": 4.6,
    "completed": false,
    "elevationAtCenter": 1305,
    "elevationEstimated": true
  },
  {
    "id": 828,
    "trailName": "Hale Ridge Road",
    "state": "Georgia",
    "latitude": 34.995939,
    "longitude": -83.281865,
    "distanceMiles": 0.03,
    "elevationGainFeet": 1.4,
    "difficultyLevel": "Easy",
    "terrainTypes": [
      "Gravel"
    ],
    "description": "Surface: gravel",
    "userRating": 3.0,
    "completed": false,
    "elevationAtCenter": 514,
    "elevationEstimated": true
  },
  {
    "id": 830,
    "trailName": "Hickory Knoll Road",
    "state": "Georgia",
    "latitude": 35.090738,
    "longitude": -83.374894,
    "distanceMiles": 1.38,
    "elevationGainFeet": 38.6,
    "difficultyLevel": "Easy",
    "terrainTypes": [
      "Paved"
    ],
    "description": "Surface: asphalt",
    "userRating": 3.6,
    "completed": false,
    "elevationAtCenter": 622,
    "elevationEstimated": true
  },
  {
    "id": 831,
    "trailName": "Old Murphy Road",
    "state": "Georgia",
    "latitude": 35.170575,
    "longitude": -83.407578,
    "distanceMiles": 0.02,
    "elevationGainFeet": 0.4,
    "difficultyLevel": "Easy",
    "terrainTypes": [
      "Paved"
    ],
    "description": "Surface: asphalt",
    "userRating": 3.1,
    "completed": false,
    "elevationAtCenter": 696,
    "elevationEstimated": true
  },
  {
    "id": 833,
    "trailName": "Wine Springs Whiteoak Road",
    "state": "Georgia",
    "latitude": 35.166069,
    "longitude": -83.611139,
    "distanceMiles": 0.02,
    "elevationGainFeet": 0.6,
    "difficultyLevel": "Easy",
    "terrainTypes": [
      "Paved"
    ],
    "description": "Surface: asphalt",
    "userRating": 3.8,
    "completed": false,
    "elevationAtCenter": 780,
    "elevationEstimated": true
  },
  {
    "id": 834,
    "trailName": "Wine Springs Loop",
    "state": "Georgia",
    "latitude": 35.166232,
    "longitude": -83.611066,
    "distanceMiles": 0.01,
    "elevationGainFeet": 0.6,
    "difficultyLevel": "Easy",
    "terrainTypes": [
      "Dirt"
    ],
    "description": "Surface: ground",
    "userRating": 4.6,
    "completed": false,
    "elevationAtCenter": 581,
    "elevationEstimated": true
  },
  {
    "id": 836,
    "trailName": "Swan Drive",
    "state": "Georgia",
    "latitude": 35.19926,
    "longitude": -83.645266,
    "distanceMiles": 0.37,
    "elevationGainFeet": 15.7,
    "difficultyLevel": "Easy",
    "terrainTypes": [
      "Mixed"
    ],
    "description": "Trail merged from 2 segments",
    "userRating": 5.0,
    "completed": false,
    "elevationAtCenter": 795,
    "elevationEstimated": true
  },
  {
    "id": 838,
    "trailName": "Junaluska Road",
    "state": "Georgia",
    "latitude": 35.221799,
    "longitude": -83.66079,
    "distanceMiles": 0.05,
    "elevationGainFeet": 2.5,
    "difficultyLevel": "Easy",
    "terrainTypes": [
      "Mixed"
    ],
    "description": "",
    "userRating": 4.1,
    "completed": false,
    "elevationAtCenter": 550,
    "elevationEstimated": true
  },
  {
    "id": 841,
    "trailName": "Shelly Bridge",
    "state": "Georgia",
    "latitude": 33.276325,
    "longitude": -83.659431,
    "distanceMiles": 0.0,
    "elevationGainFeet": 0.0,
    "difficultyLevel": "Easy",
    "terrainTypes": [
      "Mixed"
    ],
    "description": "Surface: wood",
    "userRating": 5.0,
    "completed": false,
    "elevationAtCenter": 555,
    "elevationEstimated": true
  },
  {
    "id": 842,
    "trailName": "Polyhound Trail",
    "state": "Georgia",
    "latitude": 33.277079,
    "longitude": -83.65738,
    "distanceMiles": 0.32,
    "elevationGainFeet": 17.9,
    "difficultyLevel": "Easy",
    "terrainTypes": [
      "Mixed",
      "Dirt"
    ],
    "description": "Surface: ground",
    "userRating": 3.0,
    "completed": false,
    "elevationAtCenter": 582,
    "elevationEstimated": true
  },
  {
    "id": 844,
    "trailName": "Fleetwood Bridge",
    "state": "Georgia",
    "latitude": 33.276283,
    "longitude": -83.658166,
    "distanceMiles": 0.02,
    "elevationGainFeet": 1.0,
    "difficultyLevel": "Easy",
    "terrainTypes": [
      "Mixed"
    ],
    "description": "Surface: wood",
    "userRating": 4.9,
    "completed": false,
    "elevationAtCenter": 610,
    "elevationEstimated": true
  },
  {
    "id": 845,
    "trailName": "Willie Flem Bridge",
    "state": "Georgia",
    "latitude": 33.276604,
    "longitude": -83.657716,
    "distanceMiles": 0.0,
    "elevationGainFeet": 0.0,
    "difficultyLevel": "Easy",
    "terrainTypes": [
      "Mixed"
    ],
    "description": "Surface: wood",
    "userRating": 3.0,
    "completed": false,
    "elevationAtCenter": 688,
    "elevationEstimated": true
  },
  {
    "id": 846,
    "trailName": "Ras Trail",
    "state": "Georgia",
    "latitude": 33.280602,
    "longitude": -83.657251,
    "distanceMiles": 0.53,
    "elevationGainFeet": 24.9,
    "difficultyLevel": "Easy",
    "terrainTypes": [
      "Dirt"
    ],
    "description": "Surface: ground; Surface: dirt",
    "userRating": 4.6,
    "completed": false,
    "elevationAtCenter": 844,
    "elevationEstimated": true
  },
  {
    "id": 850,
    "trailName": "Phil Bridge",
    "state": "Georgia",
    "latitude": 33.281505,
    "longitude": -83.656025,
    "distanceMiles": 0.0,
    "elevationGainFeet": 0.0,
    "difficultyLevel": "Easy",
    "terrainTypes": [
      "Mixed"
    ],
    "description": "Surface: wood",
    "userRating": 3.9,
    "completed": false,
    "elevationAtCenter": 776,
    "elevationEstimated": true
  },
  {
    "id": 852,
    "trailName": "McElheney Bridge",
    "state": "Georgia",
    "latitude": 33.282048,
    "longitude": -83.656449,
    "distanceMiles": 0.0,
    "elevationGainFeet": 0.0,
    "difficultyLevel": "Easy",
    "terrainTypes": [
      "Mixed"
    ],
    "description": "Surface: wood",
    "userRating": 3.0,
    "completed": false,
    "elevationAtCenter": 601,
    "elevationEstimated": true
  },
  {
    "id": 853,
    "trailName": "Hood Loop Trail",
    "state": "Georgia",
    "latitude": 34.644127,
    "longitude": -85.382921,
    "distanceMiles": 8.41,
    "elevationGainFeet": 365.8,
    "difficultyLevel": "Easy",
    "terrainTypes": [
      "Mixed"
    ],
    "description": "Trail merged from 9 segments",
    "userRating": 5.0,
    "completed": false,
    "elevationAtCenter": 497,
    "elevationEstimated": true
  },
  {
    "id": 860,
    "trailName": "Inez Bridge",
    "state": "Georgia",
    "latitude": 33.282183,
    "longitude": -83.658295,
    "distanceMiles": 0.0,
    "elevationGainFeet": 0.0,
    "difficultyLevel": "Easy",
    "terrainTypes": [
      "Mixed"
    ],
    "description": "Surface: wood",
    "userRating": 4.0,
    "completed": false,
    "elevationAtCenter": 687,
    "elevationEstimated": true
  },
  {
    "id": 861,
    "trailName": "Beech Trail",
    "state": "Georgia",
    "latitude": 33.282199,
    "longitude": -83.657584,
    "distanceMiles": 0.25,
    "elevationGainFeet": 12.2,
    "difficultyLevel": "Easy",
    "terrainTypes": [
      "Dirt"
    ],
    "description": "Surface: dirt; Surface: ground",
    "userRating": 3.2,
    "completed": false,
    "elevationAtCenter": 748,
    "elevationEstimated": true
  },
  {
    "id": 865,
    "trailName": "Big Frog",
    "state": "Georgia",
    "latitude": 35.011224,
    "longitude": -84.524162,
    "distanceMiles": 1.82,
    "elevationGainFeet": 81.9,
    "difficultyLevel": "Easy",
    "terrainTypes": [
      "Dirt",
      "Mountain"
    ],
    "description": "Surface: dirt",
    "userRating": 4.0,
    "completed": false,
    "elevationAtCenter": 980,
    "elevationEstimated": true
  },
  {
    "id": 866,
    "trailName": "Chestnut Mountain Loop",
    "state": "Georgia",
    "latitude": 35.059142,
    "longitude": -84.48969,
    "distanceMiles": 0.57,
    "elevationGainFeet": 25.4,
    "difficultyLevel": "Easy",
    "terrainTypes": [
      "Dirt"
    ],
    "description": "Surface: dirt",
    "userRating": 3.6,
    "completed": false,
    "elevationAtCenter": 759,
    "elevationEstimated": true
  },
  {
    "id": 878,
    "trailName": "Mid Unicoi Mtn Road",
    "state": "Georgia",
    "latitude": 35.200782,
    "longitude": -84.331852,
    "distanceMiles": 0.42,
    "elevationGainFeet": 21.0,
    "difficultyLevel": "Easy",
    "terrainTypes": [
      "Mixed"
    ],
    "description": "Surface: unpaved",
    "userRating": 4.9,
    "completed": false,
    "elevationAtCenter": 450,
    "elevationEstimated": true
  },
  {
    "id": 881,
    "trailName": "Powerhouse Road",
    "state": "Georgia",
    "latitude": 35.199857,
    "longitude": -84.465256,
    "distanceMiles": 0.28,
    "elevationGainFeet": 16.1,
    "difficultyLevel": "Easy",
    "terrainTypes": [
      "Mixed"
    ],
    "description": "",
    "userRating": 4.5,
    "completed": false,
    "elevationAtCenter": 745,
    "elevationEstimated": true
  },
  {
    "id": 882,
    "trailName": "CR A039",
    "state": "Georgia",
    "latitude": 35.186459,
    "longitude": -84.494923,
    "distanceMiles": 0.16,
    "elevationGainFeet": 6.8,
    "difficultyLevel": "Easy",
    "terrainTypes": [
      "Mixed"
    ],
    "description": "",
    "userRating": 4.1,
    "completed": false,
    "elevationAtCenter": 755,
    "elevationEstimated": true
  },
  {
    "id": 883,
    "trailName": "Lost Creek Road",
    "state": "Georgia",
    "latitude": 35.160307,
    "longitude": -84.468999,
    "distanceMiles": 0.27,
    "elevationGainFeet": 12.6,
    "difficultyLevel": "Easy",
    "terrainTypes": [
      "Mixed"
    ],
    "description": "",
    "userRating": 3.6,
    "completed": false,
    "elevationAtCenter": 723,
    "elevationEstimated": true
  },
  {
    "id": 885,
    "trailName": "Little Cassaway Road",
    "state": "Georgia",
    "latitude": 35.067101,
    "longitude": -84.493729,
    "distanceMiles": 0.01,
    "elevationGainFeet": 0.5,
    "difficultyLevel": "Easy",
    "terrainTypes": [
      "Mixed"
    ],
    "description": "",
    "userRating": 3.8,
    "completed": false,
    "elevationAtCenter": 544,
    "elevationEstimated": true
  },